[{"id": 0, "name": "가시리 여의도점", "address": "서울 영등포구 국회대로76길 16", "lat": 37.53003035074063, "lng": 126.92159748937048, "visitCount": 956, "totalAmount": 146934893, "avgAmount": 153698, "tier": "A", "institutionAmounts": {"국회의원": 146769893, "통일부": 165000}, "institutionCounts": {"국회의원": 955, "통일부": 1}}, {"id": 1, "name": "차이나프로", "address": "서울 영등포구 국회대로74길 20", "lat": 37.52951859209061, "lng": 126.92161273246056, "visitCount": 677, "totalAmount": 151758500, "avgAmount": 224163, "tier": "A", "institutionAmounts": {"국회의원": 151758500}, "institutionCounts": {"국회의원": 677}}, {"id": 2, "name": "이도곰탕 광화문직영점", "address": "서울 종로구 새문안로5길 5-27", "lat": 37.571026538534, "lng": 126.974571442226, "visitCount": 572, "totalAmount": 129009000, "avgAmount": 225540, "tier": "A", "institutionAmounts": {"국회의원": 129009000}, "institutionCounts": {"국회의원": 572}}, {"id": 3, "name": "일민미술관", "address": "서울 종로구 세종대로 152", "lat": 37.5698819940064, "lng": 126.977637157186, "visitCount": 486, "totalAmount": 79843762, "avgAmount": 164288, "tier": "A", "institutionAmounts": {"국회의원": 79843762}, "institutionCounts": {"국회의원": 486}}, {"id": 4, "name": "팔당반점 서여의도점", "address": "서울 영등포구 은행로 37", "lat": 37.5294543818258, "lng": 126.922616298661, "visitCount": 472, "totalAmount": 102818500, "avgAmount": 217836, "tier": "A", "institutionAmounts": {"국회의원": 102818500}, "institutionCounts": {"국회의원": 472}}, {"id": 5, "name": "외계인키친", "address": "서울 영등포구 의사당대로 1", "lat": 37.53026291953081, "lng": 126.91276138169376, "visitCount": 451, "totalAmount": 16288200, "avgAmount": 36116, "tier": "A", "institutionAmounts": {"국회의원": 16288200}, "institutionCounts": {"국회의원": 451}}, {"id": 6, "name": "본도시락 서여의도점", "address": "서울 영등포구 국회대로72길 21", "lat": 37.52930404641449, "lng": 126.92145117561324, "visitCount": 445, "totalAmount": 37311310, "avgAmount": 83846, "tier": "A", "institutionAmounts": {"국회의원": 37311310}, "institutionCounts": {"국회의원": 445}}, {"id": 7, "name": "차이나플레인 서울숲점", "address": "서울 성동구 뚝섬로1길 25", "lat": 37.5436451963365, "lng": 127.046303235769, "visitCount": 433, "totalAmount": 78749500, "avgAmount": 181870, "tier": "A", "institutionAmounts": {"국회의원": 78749500}, "institutionCounts": {"국회의원": 433}}, {"id": 8, "name": "민화화실 다화가", "address": "서울 마포구 백범로 205", "lat": 37.54410667747104, "lng": 126.95413099863836, "visitCount": 432, "totalAmount": 39658100, "avgAmount": 91801, "tier": "A", "institutionAmounts": {"국회의원": 39658100}, "institutionCounts": {"국회의원": 432}}, {"id": 9, "name": "참배나무골오리집 여의도점", "address": "서울 영등포구 국회대로62길 25", "lat": 37.526322787318605, "lng": 126.91770972122366, "visitCount": 409, "totalAmount": 55748700, "avgAmount": 136305, "tier": "A", "institutionAmounts": {"국회의원": 55748700}, "institutionCounts": {"국회의원": 409}}, {"id": 10, "name": "한국밥상 명지대본점", "address": "서울 서대문구 명지대2길 12", "lat": 37.5816445659181, "lng": 126.925271498852, "visitCount": 341, "totalAmount": 73477500, "avgAmount": 215477, "tier": "A", "institutionAmounts": {"국회의원": 73477500}, "institutionCounts": {"국회의원": 341}}, {"id": 11, "name": "키사라 여의도점", "address": "서울 영등포구 여의대로 128", "lat": 37.5278835790418, "lng": 126.929229336635, "visitCount": 319, "totalAmount": 78895460, "avgAmount": 247321, "tier": "A", "institutionAmounts": {"국회의원": 78895460}, "institutionCounts": {"국회의원": 319}}, {"id": 12, "name": "엘에스씨푸드 한전서울본부", "address": "서울 중구 남대문로 92", "lat": 37.56503829181903, "lng": 126.98340892255533, "visitCount": 306, "totalAmount": 27431560, "avgAmount": 89646, "tier": "A", "institutionAmounts": {"국회의원": 27341560, "외교부": 90000}, "institutionCounts": {"국회의원": 305, "외교부": 1}}, {"id": 13, "name": "싱카이 여의도점", "address": "서울 영등포구 여의대로 128", "lat": 37.5281830839885, "lng": 126.929853543052, "visitCount": 306, "totalAmount": 76440510, "avgAmount": 249806, "tier": "A", "institutionAmounts": {"국회의원": 75582510, "통일부": 858000}, "institutionCounts": {"국회의원": 303, "통일부": 3}}, {"id": 14, "name": "나의 가야 더현대서울점", "address": "서울 영등포구 여의대로 108", "lat": 37.5260861031036, "lng": 126.927778458788, "visitCount": 269, "totalAmount": 31258000, "avgAmount": 116201, "tier": "A", "institutionAmounts": {"국회의원": 31258000}, "institutionCounts": {"국회의원": 269}}, {"id": 15, "name": "필앳홈 스테이크하우스", "address": "서울 용산구 한강대로62길 45-17", "lat": 37.5326988318652, "lng": 126.973904495448, "visitCount": 258, "totalAmount": 24901000, "avgAmount": 96516, "tier": "A", "institutionAmounts": {"국회의원": 24901000}, "institutionCounts": {"국회의원": 258}}, {"id": 16, "name": "연타발 시청점", "address": "서울 중구 남대문로9길 24", "lat": 37.567139971614594, "lng": 126.98111973348824, "visitCount": 254, "totalAmount": 59783000, "avgAmount": 235366, "tier": "A", "institutionAmounts": {"국회의원": 59783000}, "institutionCounts": {"국회의원": 254}}, {"id": 17, "name": "천지명", "address": "서울 영등포구 은행로 3", "lat": 37.5274412945248, "lng": 126.919545740083, "visitCount": 245, "totalAmount": 55531000, "avgAmount": 226657, "tier": "A", "institutionAmounts": {"국회의원": 55531000}, "institutionCounts": {"국회의원": 245}}, {"id": 18, "name": "사조회참치 본점", "address": "서울 서대문구 통일로 107-39", "lat": 37.56438407314296, "lng": 126.96610619022452, "visitCount": 234, "totalAmount": 38858000, "avgAmount": 166060, "tier": "A", "institutionAmounts": {"국회의원": 38858000}, "institutionCounts": {"국회의원": 234}}, {"id": 19, "name": "고봉삼계탕 광화문점", "address": "서울 종로구 새문안로 89", "lat": 37.57047241281208, "lng": 126.97450824080896, "visitCount": 226, "totalAmount": 14210000, "avgAmount": 62876, "tier": "A", "institutionAmounts": {"국회의원": 14210000}, "institutionCounts": {"국회의원": 226}}, {"id": 20, "name": "삼도일식", "address": "서울 영등포구 국회대로 750", "lat": 37.5282247829704, "lng": 126.916399823781, "visitCount": 225, "totalAmount": 38940000, "avgAmount": 173067, "tier": "A", "institutionAmounts": {"국회의원": 38738000, "통일부": 202000}, "institutionCounts": {"국회의원": 224, "통일부": 1}}, {"id": 21, "name": "이태원천상 서여의도점", "address": "서울 영등포구 국회대로68길 17", "lat": 37.52878235567205, "lng": 126.92009186361908, "visitCount": 225, "totalAmount": 43105800, "avgAmount": 191581, "tier": "A", "institutionAmounts": {"국회의원": 43105800}, "institutionCounts": {"국회의원": 225}}, {"id": 22, "name": "속초해물탕", "address": "서울 영등포구 국회대로70길 7", "lat": 37.52999317192749, "lng": 126.91990050537316, "visitCount": 219, "totalAmount": 33825000, "avgAmount": 154452, "tier": "A", "institutionAmounts": {"국회의원": 33825000}, "institutionCounts": {"국회의원": 219}}, {"id": 23, "name": "소도", "address": "서울 영등포구 의사당대로1길 11", "lat": 37.51929943946957, "lng": 126.9287465094413, "visitCount": 200, "totalAmount": 45392000, "avgAmount": 226960, "tier": "A", "institutionAmounts": {"국회의원": 45392000}, "institutionCounts": {"국회의원": 200}}, {"id": 24, "name": "서강8경 율도", "address": "서울 마포구 토정로 128", "lat": 37.5449569537705, "lng": 126.925356793177, "visitCount": 197, "totalAmount": 41074600, "avgAmount": 208501, "tier": "A", "institutionAmounts": {"국회의원": 41074600}, "institutionCounts": {"국회의원": 197}}, {"id": 25, "name": "생태명가 여의도점", "address": "서울 영등포구 국회대로72길 22", "lat": 37.5289489662415, "lng": 126.921322576012, "visitCount": 185, "totalAmount": 18345000, "avgAmount": 99162, "tier": "A", "institutionAmounts": {"국회의원": 18345000}, "institutionCounts": {"국회의원": 185}}, {"id": 26, "name": "화수목작업실", "address": "서울 종로구 계동길 116", "lat": 37.58250902165711, "lng": 126.98690902917396, "visitCount": 185, "totalAmount": 33838500, "avgAmount": 182911, "tier": "A", "institutionAmounts": {"국회의원": 33838500}, "institutionCounts": {"국회의원": 185}}, {"id": 27, "name": "차이나플레인 여의도전경련점", "address": "서울 영등포구 여의대로 24", "lat": 37.5223312013881, "lng": 126.920121368964, "visitCount": 182, "totalAmount": 31837600, "avgAmount": 174932, "tier": "A", "institutionAmounts": {"국회의원": 31837600}, "institutionCounts": {"국회의원": 182}}, {"id": 28, "name": "너섬가", "address": "서울 종로구 대학로1길 34-8", "lat": 37.57225372787028, "lng": 127.00063164922445, "visitCount": 176, "totalAmount": 21990000, "avgAmount": 124943, "tier": "A", "institutionAmounts": {"국회의원": 21990000}, "institutionCounts": {"국회의원": 176}}, {"id": 29, "name": "해담채 여의도점", "address": "서울 영등포구 은행로 30", "lat": 37.52819931277111, "lng": 126.92265606013672, "visitCount": 176, "totalAmount": 31713700, "avgAmount": 180191, "tier": "A", "institutionAmounts": {"국회의원": 31713700}, "institutionCounts": {"국회의원": 176}}, {"id": 30, "name": "동해도 광화문점", "address": "서울 중구 무교로 28", "lat": 37.5684155064641, "lng": 126.979471321818, "visitCount": 168, "totalAmount": 43758600, "avgAmount": 260468, "tier": "A", "institutionAmounts": {"국회의원": 43450600, "통일부": 308000}, "institutionCounts": {"국회의원": 167, "통일부": 1}}, {"id": 31, "name": "바닷가 수라간", "address": "서울 중구 덕수궁길 7", "lat": 37.5647235422685, "lng": 126.976350626801, "visitCount": 163, "totalAmount": 27189000, "avgAmount": 166804, "tier": "A", "institutionAmounts": {"국회의원": 27189000}, "institutionCounts": {"국회의원": 163}}, {"id": 32, "name": "마포옥", "address": "서울 마포구 토정로 312", "lat": 37.53988170968319, "lng": 126.94333796293756, "visitCount": 162, "totalAmount": 12667500, "avgAmount": 78194, "tier": "A", "institutionAmounts": {"국회의원": 12667500}, "institutionCounts": {"국회의원": 162}}, {"id": 33, "name": "금산생대구", "address": "서울 영등포구 국회대로 750", "lat": 37.5282067629534, "lng": 126.916399843892, "visitCount": 152, "totalAmount": 11435000, "avgAmount": 75230, "tier": "A", "institutionAmounts": {"국회의원": 11435000}, "institutionCounts": {"국회의원": 152}}, {"id": 34, "name": "해담채 시청점", "address": "서울 중구 칠패로 37", "lat": 37.5600817964388, "lng": 126.973026854861, "visitCount": 149, "totalAmount": 27863050, "avgAmount": 187000, "tier": "A", "institutionAmounts": {"국회의원": 27668050, "통일부": 195000}, "institutionCounts": {"국회의원": 148, "통일부": 1}}, {"id": 35, "name": "핑하오", "address": "서울 마포구 마포대로 45", "lat": 37.5404416678041, "lng": 126.946199119405, "visitCount": 146, "totalAmount": 25979200, "avgAmount": 177940, "tier": "A", "institutionAmounts": {"국회의원": 25979200}, "institutionCounts": {"국회의원": 146}}, {"id": 36, "name": "동남집", "address": "서울 영등포구 국회대로 750", "lat": 37.52824269557988, "lng": 126.916248206624, "visitCount": 136, "totalAmount": 9630000, "avgAmount": 70809, "tier": "A", "institutionAmounts": {"국회의원": 9630000}, "institutionCounts": {"국회의원": 136}}, {"id": 37, "name": "컨퍼런스하우스 달개비", "address": "서울 중구 세종대로19길 16", "lat": 37.5667426602198, "lng": 126.976279810402, "visitCount": 129, "totalAmount": 26964600, "avgAmount": 209028, "tier": "A", "institutionAmounts": {"국회의원": 14033700, "외교부": 8711000, "통일부": 4219900}, "institutionCounts": {"국회의원": 86, "외교부": 20, "통일부": 23}}, {"id": 38, "name": "달구지", "address": "서울 성동구 왕십리로24나길 10", "lat": 37.5639648401712, "lng": 127.034820615125, "visitCount": 127, "totalAmount": 25418000, "avgAmount": 200142, "tier": "A", "institutionAmounts": {"국회의원": 25418000}, "institutionCounts": {"국회의원": 127}}, {"id": 39, "name": "호정투어", "address": "서울 종로구 종로3길 38", "lat": 37.5720771569651, "lng": 126.979502012385, "visitCount": 123, "totalAmount": 27527000, "avgAmount": 223797, "tier": "A", "institutionAmounts": {"국회의원": 27527000}, "institutionCounts": {"국회의원": 123}}, {"id": 40, "name": "국회의원회관 의원식당", "address": "서울 영등포구 의사당대로 1", "lat": 37.528213791654245, "lng": 126.91364619905092, "visitCount": 123, "totalAmount": 5078700, "avgAmount": 41290, "tier": "A", "institutionAmounts": {"국회의원": 5078700}, "institutionCounts": {"국회의원": 123}}, {"id": 41, "name": "노조미", "address": "서울 영등포구 은행로 3", "lat": 37.5274485302703, "lng": 126.919586459478, "visitCount": 121, "totalAmount": 20284500, "avgAmount": 167640, "tier": "A", "institutionAmounts": {"국회의원": 19925500, "통일부": 359000}, "institutionCounts": {"국회의원": 119, "통일부": 2}}, {"id": 42, "name": "켄싱턴호텔 여의도", "address": "서울 영등포구 국회대로76길 16", "lat": 37.53026122576229, "lng": 126.92192760269, "visitCount": 115, "totalAmount": 20021900, "avgAmount": 174103, "tier": "A", "institutionAmounts": {"국회의원": 20021900}, "institutionCounts": {"국회의원": 115}}, {"id": 43, "name": "고방채 동여의도본점", "address": "서울 영등포구 여의대방로65길 20", "lat": 37.52021441036149, "lng": 126.92950128165612, "visitCount": 109, "totalAmount": 18485200, "avgAmount": 169589, "tier": "A", "institutionAmounts": {"국회의원": 18485200}, "institutionCounts": {"국회의원": 109}}, {"id": 44, "name": "진진만두 국회점", "address": "서울 영등포구 국회대로72길 11", "lat": 37.52989468589304, "lng": 126.9208260526319, "visitCount": 109, "totalAmount": 8997000, "avgAmount": 82541, "tier": "A", "institutionAmounts": {"국회의원": 8997000}, "institutionCounts": {"국회의원": 109}}, {"id": 45, "name": "동우황태북어국 본점", "address": "서울 영등포구 국회대로74길 19", "lat": 37.5298071513195, "lng": 126.9219733298, "visitCount": 107, "totalAmount": 2703000, "avgAmount": 25262, "tier": "A", "institutionAmounts": {"국회의원": 2703000}, "institutionCounts": {"국회의원": 107}}, {"id": 46, "name": "독토", "address": "서울 영등포구 국회대로70길 7", "lat": 37.529798672289, "lng": 126.920072677902, "visitCount": 105, "totalAmount": 23250000, "avgAmount": 221429, "tier": "A", "institutionAmounts": {"국회의원": 23250000}, "institutionCounts": {"국회의원": 105}}, {"id": 47, "name": "이태원천상 서울역점", "address": "서울 용산구 후암로57길 15", "lat": 37.5528326207862, "lng": 126.974144186276, "visitCount": 104, "totalAmount": 18171700, "avgAmount": 174728, "tier": "A", "institutionAmounts": {"국회의원": 18171700}, "institutionCounts": {"국회의원": 104}}, {"id": 48, "name": "장수집", "address": "서울 영등포구 국회대로70길 7", "lat": 37.5299967882058, "lng": 126.919918603085, "visitCount": 102, "totalAmount": 7881000, "avgAmount": 77265, "tier": "A", "institutionAmounts": {"국회의원": 7881000}, "institutionCounts": {"국회의원": 102}}, {"id": 49, "name": "일품당프리미엄", "address": "서울 종로구 새문안로5가길 7", "lat": 37.57276083968429, "lng": 126.97404560665156, "visitCount": 102, "totalAmount": 15855800, "avgAmount": 155449, "tier": "A", "institutionAmounts": {"국회의원": 269500, "외교부": 6063800, "통일부": 9522500}, "institutionCounts": {"국회의원": 2, "외교부": 34, "통일부": 66}}, {"id": 50, "name": "연타발 여의도점", "address": "서울 영등포구 국회대로70길 18", "lat": 37.5288906500175, "lng": 126.920349691781, "visitCount": 99, "totalAmount": 26715400, "avgAmount": 269853, "tier": "A", "institutionAmounts": {"국회의원": 26715400}, "institutionCounts": {"국회의원": 99}}, {"id": 51, "name": "그랑올라", "address": "서울 영등포구 당산로 167", "lat": 37.5294988941401, "lng": 126.898158921597, "visitCount": 99, "totalAmount": 18770300, "avgAmount": 189599, "tier": "A", "institutionAmounts": {"국회의원": 18770300}, "institutionCounts": {"국회의원": 99}}, {"id": 52, "name": "파리바게뜨 경복궁역점", "address": "서울 종로구 자하문로 5", "lat": 37.57661669190941, "lng": 126.97226467972024, "visitCount": 96, "totalAmount": 5004830, "avgAmount": 52134, "tier": "A", "institutionAmounts": {"국회의원": 2142530, "외교부": 69700, "종로구의회": 2417600, "통일부": 375000}, "institutionCounts": {"국회의원": 53, "외교부": 1, "종로구의회": 41, "통일부": 1}}, {"id": 53, "name": "차이797 광화문 SFC점", "address": "서울 중구 세종대로 136", "lat": 37.5683755807035, "lng": 126.977909270556, "visitCount": 91, "totalAmount": 16062900, "avgAmount": 176515, "tier": "A", "institutionAmounts": {"국회의원": 1365500, "외교부": 6699500, "통일부": 7997900}, "institutionCounts": {"국회의원": 8, "외교부": 33, "통일부": 50}}, {"id": 54, "name": "구이구이 여의도본점", "address": "서울 영등포구 의사당대로 38", "lat": 37.5257309285688, "lng": 126.919158415149, "visitCount": 89, "totalAmount": 13759000, "avgAmount": 154596, "tier": "A", "institutionAmounts": {"국회의원": 13759000}, "institutionCounts": {"국회의원": 89}}, {"id": 55, "name": "민성물류", "address": "서울 성동구 청계천로 484", "lat": 37.5693449174292, "lng": 127.030744726095, "visitCount": 89, "totalAmount": 4572050, "avgAmount": 51371, "tier": "A", "institutionAmounts": {"국회의원": 4572050}, "institutionCounts": {"국회의원": 89}}, {"id": 56, "name": "여의도양지탕 본관", "address": "서울 영등포구 국회대로70길 7", "lat": 37.5298635045089, "lng": 126.920013778698, "visitCount": 88, "totalAmount": 4291000, "avgAmount": 48761, "tier": "A", "institutionAmounts": {"국회의원": 4291000}, "institutionCounts": {"국회의원": 88}}, {"id": 57, "name": "김삼보 종로점", "address": "서울 종로구 종로 19", "lat": 37.57081947210855, "lng": 126.98011248681595, "visitCount": 86, "totalAmount": 6510000, "avgAmount": 75698, "tier": "A", "institutionAmounts": {"국회의원": 6510000}, "institutionCounts": {"국회의원": 86}}, {"id": 58, "name": "신안촌 본점", "address": "서울 종로구 사직로12길 8", "lat": 37.57561805535909, "lng": 126.9708749065259, "visitCount": 84, "totalAmount": 12443000, "avgAmount": 148131, "tier": "A", "institutionAmounts": {"외교부": 4138000, "통일부": 8305000}, "institutionCounts": {"외교부": 43, "통일부": 41}}, {"id": 59, "name": "황금복국 여의도점", "address": "서울 영등포구 국회대로70길 7", "lat": 37.5299103412172, "lng": 126.919991101736, "visitCount": 84, "totalAmount": 10965200, "avgAmount": 130538, "tier": "A", "institutionAmounts": {"국회의원": 10876200, "통일부": 89000}, "institutionCounts": {"국회의원": 83, "통일부": 1}}, {"id": 60, "name": "일품진진수라 광화문점", "address": "서울 종로구 종로5길 7", "lat": 37.5706357409413, "lng": 126.980543813707, "visitCount": 84, "totalAmount": 11377800, "avgAmount": 135450, "tier": "A", "institutionAmounts": {"국회의원": 8827200, "외교부": 2550600}, "institutionCounts": {"국회의원": 72, "외교부": 12}}, {"id": 61, "name": "페어몬트 앰배서더 서울 마리포사", "address": "서울 영등포구 여의대로 108", "lat": 37.5251967176239, "lng": 126.929106303187, "visitCount": 79, "totalAmount": 13026400, "avgAmount": 164891, "tier": "A", "institutionAmounts": {"국회의원": 13026400}, "institutionCounts": {"국회의원": 79}}, {"id": 62, "name": "회동", "address": "서울 영등포구 국회대로72길 21", "lat": 37.5293274919952, "lng": 126.92148056583, "visitCount": 78, "totalAmount": 16017000, "avgAmount": 205346, "tier": "A", "institutionAmounts": {"국회의원": 16017000}, "institutionCounts": {"국회의원": 78}}, {"id": 63, "name": "이도맨숀 주차장", "address": "서울 영등포구 여의도동 13-11", "lat": 37.5308405336437, "lng": 126.920522979357, "visitCount": 78, "totalAmount": 20560000, "avgAmount": 263590, "tier": "A", "institutionAmounts": {"국회의원": 20560000}, "institutionCounts": {"국회의원": 78}}, {"id": 64, "name": "리샨 여의도점", "address": "서울 영등포구 의사당대로 38", "lat": 37.525289276622, "lng": 126.918923585996, "visitCount": 78, "totalAmount": 8088000, "avgAmount": 103692, "tier": "A", "institutionAmounts": {"국회의원": 8088000}, "institutionCounts": {"국회의원": 78}}, {"id": 65, "name": "영덕회식당 종로점", "address": "서울 종로구 종로5길 32-12", "lat": 37.5717242430088, "lng": 126.981159327574, "visitCount": 77, "totalAmount": 9646500, "avgAmount": 125279, "tier": "A", "institutionAmounts": {"국회의원": 8301000, "종로구의회": 965500, "종로구청": 45000, "통일부": 335000}, "institutionCounts": {"국회의원": 67, "종로구의회": 8, "종로구청": 1, "통일부": 1}}, {"id": 66, "name": "가톨릭회관 구내식당", "address": "서울 중구 명동길 80", "lat": 37.564200845014, "lng": 126.987272166893, "visitCount": 76, "totalAmount": 12429000, "avgAmount": 163539, "tier": "A", "institutionAmounts": {"국회의원": 12429000}, "institutionCounts": {"국회의원": 76}}, {"id": 67, "name": "농민백암순대 시청직영점", "address": "서울 중구 남대문로1길 33", "lat": 37.56259825108099, "lng": 126.97715943361476, "visitCount": 75, "totalAmount": 4230000, "avgAmount": 56400, "tier": "A", "institutionAmounts": {"국회의원": 4230000}, "institutionCounts": {"국회의원": 75}}, {"id": 68, "name": "조PD키친", "address": "서울 영등포구 국회대로 780", "lat": 37.5298179665068, "lng": 126.91929655399, "visitCount": 75, "totalAmount": 9040000, "avgAmount": 120533, "tier": "A", "institutionAmounts": {"국회의원": 9040000}, "institutionCounts": {"국회의원": 75}}, {"id": 69, "name": "스타벅스 을지로한국빌딩점", "address": "서울 중구 을지로 50", "lat": 37.5656626881538, "lng": 126.983451795824, "visitCount": 74, "totalAmount": 1398600, "avgAmount": 18900, "tier": "A", "institutionAmounts": {"국회의원": 855000, "외교부": 94000, "종로구의회": 449600}, "institutionCounts": {"국회의원": 59, "외교부": 2, "종로구의회": 13}}, {"id": 70, "name": "원모어백", "address": "서울 종로구 필운대로 6-1", "lat": 37.5766484135984, "lng": 126.969375665272, "visitCount": 73, "totalAmount": 14798500, "avgAmount": 202719, "tier": "A", "institutionAmounts": {"국회의원": 14798500}, "institutionCounts": {"국회의원": 73}}, {"id": 71, "name": "삿뽀로블랙 IFC점", "address": "서울 영등포구 국제금융로 10", "lat": 37.525424129814, "lng": 126.92674284479, "visitCount": 73, "totalAmount": 14335200, "avgAmount": 196373, "tier": "A", "institutionAmounts": {"국회의원": 14335200}, "institutionCounts": {"국회의원": 73}}, {"id": 72, "name": "남해바다", "address": "서울 마포구 토정로37길 46", "lat": 37.5425577446584, "lng": 126.947374398998, "visitCount": 73, "totalAmount": 19175500, "avgAmount": 262678, "tier": "A", "institutionAmounts": {"국회의원": 19175500}, "institutionCounts": {"국회의원": 73}}, {"id": 73, "name": "홍보석", "address": "서울 종로구 종로 135", "lat": 37.5707488366134, "lng": 126.992615059818, "visitCount": 72, "totalAmount": 22071000, "avgAmount": 306542, "tier": "A", "institutionAmounts": {"국회의원": 22071000}, "institutionCounts": {"국회의원": 72}}, {"id": 74, "name": "장독대집밥", "address": "서울 마포구 백범로1길 78", "lat": 37.555810187612, "lng": 126.940932276825, "visitCount": 71, "totalAmount": 5781800, "avgAmount": 81434, "tier": "A", "institutionAmounts": {"국회의원": 5781800}, "institutionCounts": {"국회의원": 71}}, {"id": 75, "name": "봉피양 마포점", "address": "서울 마포구 토정로 308", "lat": 37.54012296227281, "lng": 126.94289083716951, "visitCount": 70, "totalAmount": 18204000, "avgAmount": 260057, "tier": "A", "institutionAmounts": {"국회의원": 18204000}, "institutionCounts": {"국회의원": 70}}, {"id": 76, "name": "오성해물탕", "address": "서울 영등포구 국회대로76길 18", "lat": 37.53005057973063, "lng": 126.9222129223158, "visitCount": 69, "totalAmount": 11411467, "avgAmount": 165384, "tier": "A", "institutionAmounts": {"국회의원": 11411467}, "institutionCounts": {"국회의원": 69}}, {"id": 77, "name": "미향", "address": "서울 종로구 창경궁로34길 14", "lat": 37.5843567808473, "lng": 127.000855921351, "visitCount": 68, "totalAmount": 7759000, "avgAmount": 114103, "tier": "A", "institutionAmounts": {"국회의원": 634000, "외교부": 3519000, "통일부": 3606000}, "institutionCounts": {"국회의원": 3, "외교부": 33, "통일부": 32}}, {"id": 78, "name": "판동면옥 여의도점", "address": "서울 영등포구 은행로 37", "lat": 37.5293858990928, "lng": 126.922606187354, "visitCount": 67, "totalAmount": 8851000, "avgAmount": 132104, "tier": "A", "institutionAmounts": {"국회의원": 8851000}, "institutionCounts": {"국회의원": 67}}, {"id": 79, "name": "VIP참치 종로구청점", "address": "서울 종로구 삼봉로 71", "lat": 37.57249905305539, "lng": 126.98087500250784, "visitCount": 66, "totalAmount": 10255500, "avgAmount": 155386, "tier": "A", "institutionAmounts": {"국회의원": 674000, "외교부": 2244500, "종로구의회": 4176000, "종로구청": 106000, "통일부": 3055000}, "institutionCounts": {"국회의원": 2, "외교부": 19, "종로구의회": 22, "종로구청": 1, "통일부": 22}}, {"id": 80, "name": "본죽&비빔밥cafe 경복궁역점", "address": "서울 종로구 자하문로2길 1", "lat": 37.57659157874545, "lng": 126.9727571323012, "visitCount": 64, "totalAmount": 3501600, "avgAmount": 54712, "tier": "A", "institutionAmounts": {"국회의원": 2874600, "종로구의회": 21500, "통일부": 605500}, "institutionCounts": {"국회의원": 56, "종로구의회": 1, "통일부": 7}}, {"id": 81, "name": "족발1번지 여의도본점", "address": "서울 영등포구 국회대로72길 6", "lat": 37.53015914371484, "lng": 126.9201775089117, "visitCount": 64, "totalAmount": 5653000, "avgAmount": 88328, "tier": "A", "institutionAmounts": {"국회의원": 5653000}, "institutionCounts": {"국회의원": 64}}, {"id": 82, "name": "신당양곱창", "address": "서울 영등포구 국회대로72길 11", "lat": 37.5299217356298, "lng": 126.920855439076, "visitCount": 63, "totalAmount": 17178000, "avgAmount": 272667, "tier": "A", "institutionAmounts": {"국회의원": 17178000}, "institutionCounts": {"국회의원": 63}}, {"id": 83, "name": "금산민속손칼국수", "address": "서울 영등포구 국회대로 750", "lat": 37.5282247733598, "lng": 126.91638624793, "visitCount": 63, "totalAmount": 6577000, "avgAmount": 104397, "tier": "A", "institutionAmounts": {"국회의원": 6577000}, "institutionCounts": {"국회의원": 63}}, {"id": 84, "name": "항아리갈비탕 여의도점", "address": "서울 영등포구 국회대로62길 25", "lat": 37.5263191896195, "lng": 126.91771877552, "visitCount": 63, "totalAmount": 8679000, "avgAmount": 137762, "tier": "A", "institutionAmounts": {"국회의원": 8679000}, "institutionCounts": {"국회의원": 63}}, {"id": 85, "name": "구마산", "address": "서울 영등포구 국제금융로 70", "lat": 37.52147023473882, "lng": 126.93073086740615, "visitCount": 63, "totalAmount": 9960000, "avgAmount": 158095, "tier": "A", "institutionAmounts": {"국회의원": 9960000}, "institutionCounts": {"국회의원": 63}}, {"id": 86, "name": "삼씨오화 종각점", "address": "서울 종로구 우정국로 26", "lat": 37.5714930518397, "lng": 126.983602190734, "visitCount": 62, "totalAmount": 11209400, "avgAmount": 180797, "tier": "A", "institutionAmounts": {"국회의원": 11209400}, "institutionCounts": {"국회의원": 62}}, {"id": 87, "name": "루뽀", "address": "서울 종로구 새문안로5길 31", "lat": 37.5729951676138, "lng": 126.974362485065, "visitCount": 61, "totalAmount": 6762350, "avgAmount": 110858, "tier": "A", "institutionAmounts": {"외교부": 3715850, "통일부": 3046500}, "institutionCounts": {"외교부": 31, "통일부": 30}}, {"id": 88, "name": "꼼배꼼하우스", "address": "서울 중구 마른내로2길 30", "lat": 37.5633308630777, "lng": 126.991506576336, "visitCount": 60, "totalAmount": 3200500, "avgAmount": 53342, "tier": "A", "institutionAmounts": {"국회의원": 3200500}, "institutionCounts": {"국회의원": 60}}, {"id": 89, "name": "몽중헌 공덕점", "address": "서울 마포구 마포대로 92", "lat": 37.5429378460993, "lng": 126.951293801463, "visitCount": 60, "totalAmount": 14604700, "avgAmount": 243412, "tier": "A", "institutionAmounts": {"국회의원": 14384700, "통일부": 220000}, "institutionCounts": {"국회의원": 59, "통일부": 1}}, {"id": 90, "name": "더플라자호텔", "address": "서울 중구 소공로 119", "lat": 37.56469234685201, "lng": 126.97811069981492, "visitCount": 59, "totalAmount": 11142100, "avgAmount": 188849, "tier": "A", "institutionAmounts": {"국회의원": 10967600, "통일부": 174500}, "institutionCounts": {"국회의원": 58, "통일부": 1}}, {"id": 91, "name": "고방채 서여의도KBS3호점", "address": "서울 영등포구 국회대로62길 25", "lat": 37.526225463424666, "lng": 126.91768720229572, "visitCount": 57, "totalAmount": 10108900, "avgAmount": 177349, "tier": "A", "institutionAmounts": {"국회의원": 10108900}, "institutionCounts": {"국회의원": 57}}, {"id": 92, "name": "코레일유통 서울3층맞이 펀마케팅", "address": "서울 중구 한강대로 405", "lat": 37.5546905509916, "lng": 126.970603517628, "visitCount": 57, "totalAmount": 820300, "avgAmount": 14391, "tier": "A", "institutionAmounts": {"국회의원": 783300, "외교부": 37000}, "institutionCounts": {"국회의원": 56, "외교부": 1}}, {"id": 93, "name": "파리바게뜨 마포역점", "address": "서울 마포구 마포대로 33", "lat": 37.54009732304702, "lng": 126.94584294388088, "visitCount": 57, "totalAmount": 3754000, "avgAmount": 65860, "tier": "A", "institutionAmounts": {"국회의원": 3754000}, "institutionCounts": {"국회의원": 57}}, {"id": 94, "name": "태진복집", "address": "서울 종로구 자하문로10길 10-24", "lat": 37.5790421243038, "lng": 126.972078117213, "visitCount": 56, "totalAmount": 8184000, "avgAmount": 146143, "tier": "A", "institutionAmounts": {"국회의원": 219000, "외교부": 90000, "통일부": 7875000}, "institutionCounts": {"국회의원": 2, "외교부": 1, "통일부": 53}}, {"id": 95, "name": "향토칼국수", "address": "서울 영등포구 국회대로 780", "lat": 37.5299530129123, "lng": 126.919144807858, "visitCount": 55, "totalAmount": 3964000, "avgAmount": 72073, "tier": "A", "institutionAmounts": {"국회의원": 3964000}, "institutionCounts": {"국회의원": 55}}, {"id": 96, "name": "유가네닭갈비 명동2호점", "address": "서울 중구 명동4길 8", "lat": 37.5632912717904, "lng": 126.983493067053, "visitCount": 53, "totalAmount": 3923500, "avgAmount": 74028, "tier": "A", "institutionAmounts": {"국회의원": 3923500}, "institutionCounts": {"국회의원": 53}}, {"id": 97, "name": "은성순대국", "address": "서울 마포구 신촌로32길 6", "lat": 37.55684282529818, "lng": 126.95320194475792, "visitCount": 53, "totalAmount": 2176000, "avgAmount": 41057, "tier": "A", "institutionAmounts": {"국회의원": 2176000}, "institutionCounts": {"국회의원": 53}}, {"id": 98, "name": "민소한우 서여의도점", "address": "서울 영등포구 국회대로68길 17", "lat": 37.52893729106048, "lng": 126.92003739437315, "visitCount": 51, "totalAmount": 15756900, "avgAmount": 308959, "tier": "A", "institutionAmounts": {"국회의원": 14761900, "통일부": 995000}, "institutionCounts": {"국회의원": 45, "통일부": 6}}, {"id": 99, "name": "H라운지", "address": "서울 종로구 자하문로4길 21-9", "lat": 37.5779071975607, "lng": 126.973491368625, "visitCount": 51, "totalAmount": 6386500, "avgAmount": 125225, "tier": "A", "institutionAmounts": {"국회의원": 9000, "외교부": 2156500, "통일부": 4221000}, "institutionCounts": {"국회의원": 1, "외교부": 15, "통일부": 35}}, {"id": 100, "name": "클레오파트라 레스토랑", "address": "서울 용산구 이태원로 199", "lat": 37.5348361253964, "lng": 126.996208604724, "visitCount": 50, "totalAmount": 5022500, "avgAmount": 100450, "tier": "A", "institutionAmounts": {"국회의원": 5022500}, "institutionCounts": {"국회의원": 50}}, {"id": 101, "name": "갤러리너트", "address": "서울 종로구 윤보선길 27", "lat": 37.57728556656086, "lng": 126.98374356063488, "visitCount": 50, "totalAmount": 7380000, "avgAmount": 147600, "tier": "A", "institutionAmounts": {"국회의원": 7380000}, "institutionCounts": {"국회의원": 50}}, {"id": 102, "name": "루나미엘레", "address": "서울 영등포구 여의공원로 101", "lat": 37.52926663975295, "lng": 126.9248904813006, "visitCount": 50, "totalAmount": 10276000, "avgAmount": 205520, "tier": "A", "institutionAmounts": {"국회의원": 10276000}, "institutionCounts": {"국회의원": 50}}, {"id": 103, "name": "동경 광화문점", "address": "서울 종로구 새문안로9길 28", "lat": 37.57138266862079, "lng": 126.97569650394443, "visitCount": 49, "totalAmount": 8525900, "avgAmount": 173998, "tier": "A", "institutionAmounts": {"국회의원": 8451900, "종로구청": 74000}, "institutionCounts": {"국회의원": 47, "종로구청": 2}}, {"id": 104, "name": "서강팔경", "address": "서울 마포구 토정로 128", "lat": 37.5449461417886, "lng": 126.925356803957, "visitCount": 49, "totalAmount": 14281600, "avgAmount": 291461, "tier": "A", "institutionAmounts": {"국회의원": 14281600}, "institutionCounts": {"국회의원": 49}}, {"id": 105, "name": "올라까삐딴", "address": "서울 종로구 팔판길 15", "lat": 37.58259919947154, "lng": 126.98088034407913, "visitCount": 49, "totalAmount": 9408200, "avgAmount": 192004, "tier": "A", "institutionAmounts": {"국회의원": 9408200}, "institutionCounts": {"국회의원": 49}}, {"id": 106, "name": "본보야지", "address": "서울 중구 정동길 33", "lat": 37.56624621441122, "lng": 126.97216665443422, "visitCount": 49, "totalAmount": 7933400, "avgAmount": 161906, "tier": "A", "institutionAmounts": {"국회의원": 7933400}, "institutionCounts": {"국회의원": 49}}, {"id": 107, "name": "미조리횟집", "address": "서울 중구 퇴계로22길 7", "lat": 37.56055443663978, "lng": 126.98659256889869, "visitCount": 47, "totalAmount": 5202000, "avgAmount": 110681, "tier": "A", "institutionAmounts": {"국회의원": 5202000}, "institutionCounts": {"국회의원": 47}}, {"id": 108, "name": "금룡여행사", "address": "서울 종로구 새문안로5길 19", "lat": 37.572040107071, "lng": 126.974335644824, "visitCount": 47, "totalAmount": 4013000, "avgAmount": 85383, "tier": "A", "institutionAmounts": {"국회의원": 4013000}, "institutionCounts": {"국회의원": 47}}, {"id": 109, "name": "창고43 무교점", "address": "서울 중구 무교로 21", "lat": 37.5678855903905, "lng": 126.978733454281, "visitCount": 47, "totalAmount": 13846535, "avgAmount": 294607, "tier": "A", "institutionAmounts": {"국회의원": 13846535}, "institutionCounts": {"국회의원": 47}}, {"id": 110, "name": "세양원", "address": "서울 서대문구 충정로 8", "lat": 37.55967819944589, "lng": 126.96320186596732, "visitCount": 46, "totalAmount": 8688000, "avgAmount": 188870, "tier": "A", "institutionAmounts": {"국회의원": 8688000}, "institutionCounts": {"국회의원": 46}}, {"id": 111, "name": "만나분식", "address": "서울 종로구 필운대로1길 4", "lat": 37.577351117107, "lng": 126.96909915363, "visitCount": 46, "totalAmount": 5337000, "avgAmount": 116022, "tier": "A", "institutionAmounts": {"국회의원": 5337000}, "institutionCounts": {"국회의원": 46}}, {"id": 112, "name": "색동저고리", "address": "서울 중구 장충단로13길 20", "lat": 37.5686440889016, "lng": 127.00773336781, "visitCount": 44, "totalAmount": 6663700, "avgAmount": 151448, "tier": "A", "institutionAmounts": {"국회의원": 6663700}, "institutionCounts": {"국회의원": 44}}, {"id": 113, "name": "아현죽집", "address": "서울 마포구 마포대로21길 62", "lat": 37.5557948963722, "lng": 126.955350640243, "visitCount": 44, "totalAmount": 1489000, "avgAmount": 33841, "tier": "A", "institutionAmounts": {"국회의원": 1489000}, "institutionCounts": {"국회의원": 44}}, {"id": 114, "name": "백리향", "address": "서울 마포구 양화로 45", "lat": 37.5514141258742, "lng": 126.91308755287515, "visitCount": 44, "totalAmount": 18671785, "avgAmount": 424359, "tier": "A", "institutionAmounts": {"국회의원": 18671785}, "institutionCounts": {"국회의원": 44}}, {"id": 115, "name": "램랜드 주차장", "address": "서울 마포구 용강동 494-32", "lat": 37.5434970755902, "lng": 126.939026273917, "visitCount": 44, "totalAmount": 7218000, "avgAmount": 164045, "tier": "A", "institutionAmounts": {"국회의원": 7218000}, "institutionCounts": {"국회의원": 44}}, {"id": 116, "name": "경복궁블랙 여의도IFC점", "address": "서울 영등포구 국제금융로 10", "lat": 37.5254502455232, "lng": 126.92672132493232, "visitCount": 44, "totalAmount": 10473900, "avgAmount": 238043, "tier": "A", "institutionAmounts": {"국회의원": 10473900}, "institutionCounts": {"국회의원": 44}}, {"id": 117, "name": "스시나고미", "address": "서울 영등포구 국회대로 780", "lat": 37.5301008915327, "lng": 126.91931208806432, "visitCount": 44, "totalAmount": 7910000, "avgAmount": 179773, "tier": "A", "institutionAmounts": {"국회의원": 7910000}, "institutionCounts": {"국회의원": 44}}, {"id": 118, "name": "까까를로", "address": "서울 성동구 왕십리로8길 21", "lat": 37.5461118588089, "lng": 127.046995032747, "visitCount": 43, "totalAmount": 12909500, "avgAmount": 300221, "tier": "A", "institutionAmounts": {"국회의원": 9499000, "통일부": 3410500}, "institutionCounts": {"국회의원": 35, "통일부": 8}}, {"id": 119, "name": "렐란디 신송센터빌딩점", "address": "서울 영등포구 여의나루로 57", "lat": 37.5230447783179, "lng": 126.925613927574, "visitCount": 42, "totalAmount": 5338600, "avgAmount": 127110, "tier": "A", "institutionAmounts": {"국회의원": 5338600}, "institutionCounts": {"국회의원": 42}}, {"id": 120, "name": "창고43 여의강변점", "address": "서울 영등포구 여의서로 43", "lat": 37.53072713247811, "lng": 126.92484263104798, "visitCount": 42, "totalAmount": 15299000, "avgAmount": 364262, "tier": "A", "institutionAmounts": {"국회의원": 15299000}, "institutionCounts": {"국회의원": 42}}, {"id": 121, "name": "더솔키친", "address": "서울 종로구 자하문로2길 16", "lat": 37.57642777926083, "lng": 126.97355528793656, "visitCount": 41, "totalAmount": 5008500, "avgAmount": 122159, "tier": "A", "institutionAmounts": {"외교부": 1068500, "통일부": 3940000}, "institutionCounts": {"외교부": 11, "통일부": 30}}, {"id": 122, "name": "화해당 여의도점", "address": "서울 영등포구 국회대로62길 15", "lat": 37.52693667981763, "lng": 126.91686622657583, "visitCount": 41, "totalAmount": 7265000, "avgAmount": 177195, "tier": "A", "institutionAmounts": {"국회의원": 7265000}, "institutionCounts": {"국회의원": 41}}, {"id": 123, "name": "은주설렁탕", "address": "서울 영등포구 국회대로 750", "lat": 37.5282716606351, "lng": 126.916435973787, "visitCount": 40, "totalAmount": 4669000, "avgAmount": 116725, "tier": "A", "institutionAmounts": {"국회의원": 4669000}, "institutionCounts": {"국회의원": 40}}, {"id": 124, "name": "경인꽃게", "address": "서울 동작구 노들로 674", "lat": 37.51490144748456, "lng": 126.93798403033868, "visitCount": 40, "totalAmount": 2870000, "avgAmount": 71750, "tier": "A", "institutionAmounts": {"국회의원": 2870000}, "institutionCounts": {"국회의원": 40}}, {"id": 125, "name": "쿠팡 중구1캠프", "address": "서울 중구 통일로4길 27", "lat": 37.5647496274586, "lng": 126.968454663679, "visitCount": 40, "totalAmount": 3143920, "avgAmount": 78598, "tier": "A", "institutionAmounts": {"국회의원": 3143920}, "institutionCounts": {"국회의원": 40}}, {"id": 126, "name": "현대그린푸드 현대건설본사지점", "address": "서울 종로구 율곡로 75", "lat": 37.5780022739539, "lng": 126.987122648299, "visitCount": 39, "totalAmount": 2886100, "avgAmount": 74003, "tier": "A", "institutionAmounts": {"국회의원": 2830100, "외교부": 56000}, "institutionCounts": {"국회의원": 38, "외교부": 1}}, {"id": 127, "name": "봉명성", "address": "서울 영등포구 선유로 83", "lat": 37.5213551676263, "lng": 126.889611196504, "visitCount": 39, "totalAmount": 5235000, "avgAmount": 134231, "tier": "A", "institutionAmounts": {"국회의원": 5235000}, "institutionCounts": {"국회의원": 39}}, {"id": 128, "name": "한방대가삼계탕 여의도점", "address": "서울 영등포구 국회대로72길 22", "lat": 37.529050703159285, "lng": 126.92120820438276, "visitCount": 39, "totalAmount": 2929500, "avgAmount": 75115, "tier": "A", "institutionAmounts": {"국회의원": 2929500}, "institutionCounts": {"국회의원": 39}}, {"id": 129, "name": "투썸플레이스 종로구청점", "address": "서울 종로구 종로5길 58", "lat": 37.57293321398912, "lng": 126.98015607267423, "visitCount": 39, "totalAmount": 607600, "avgAmount": 15579, "tier": "A", "institutionAmounts": {"국회의원": 607600}, "institutionCounts": {"국회의원": 39}}, {"id": 130, "name": "양마니명동찌개마을 용답점", "address": "서울 성동구 용답중앙15길 15-6", "lat": 37.5649235367282, "lng": 127.053905636778, "visitCount": 39, "totalAmount": 11262000, "avgAmount": 288769, "tier": "A", "institutionAmounts": {"국회의원": 11262000}, "institutionCounts": {"국회의원": 39}}, {"id": 131, "name": "남도제철음식점", "address": "서울 영등포구 국회대로72길 11", "lat": 37.5299154278668, "lng": 126.9208543143936, "visitCount": 38, "totalAmount": 6203000, "avgAmount": 163237, "tier": "A", "institutionAmounts": {"국회의원": 6203000}, "institutionCounts": {"국회의원": 38}}, {"id": 132, "name": "남도집", "address": "서울 종로구 삼봉로 80-12", "lat": 37.57195947182217, "lng": 126.98159734588836, "visitCount": 38, "totalAmount": 5841500, "avgAmount": 153724, "tier": "A", "institutionAmounts": {"국회의원": 5286500, "통일부": 555000}, "institutionCounts": {"국회의원": 34, "통일부": 4}}, {"id": 133, "name": "마초", "address": "서울 종로구 사직로10길 19", "lat": 37.5750016352666, "lng": 126.970313660012, "visitCount": 38, "totalAmount": 5001000, "avgAmount": 131605, "tier": "A", "institutionAmounts": {"국회의원": 4199000, "외교부": 329000, "통일부": 473000}, "institutionCounts": {"국회의원": 34, "외교부": 2, "통일부": 2}}, {"id": 134, "name": "나주소나주곰탕 경복궁점", "address": "서울 종로구 자하문로2길 8", "lat": 37.5763682113282, "lng": 126.973102488959, "visitCount": 37, "totalAmount": 3278000, "avgAmount": 88595, "tier": "A", "institutionAmounts": {"국회의원": 2364000, "종로구의회": 814000, "통일부": 100000}, "institutionCounts": {"국회의원": 29, "종로구의회": 7, "통일부": 1}}, {"id": 135, "name": "경복궁 삿뽀로도시락 서초점", "address": "서울 서초구 서초중앙로 195", "lat": 37.49923241125149, "lng": 127.01211177444785, "visitCount": 37, "totalAmount": 8230800, "avgAmount": 222454, "tier": "A", "institutionAmounts": {"국회의원": 8085800, "통일부": 145000}, "institutionCounts": {"국회의원": 36, "통일부": 1}}, {"id": 136, "name": "빵아빵아 황학점", "address": "서울 중구 난계로17길 9-7", "lat": 37.5691601691564, "lng": 127.023025944439, "visitCount": 37, "totalAmount": 4724000, "avgAmount": 127676, "tier": "A", "institutionAmounts": {"국회의원": 4724000}, "institutionCounts": {"국회의원": 37}}, {"id": 137, "name": "곽수산", "address": "서울 영등포구 국회대로74길 19", "lat": 37.52980534034776, "lng": 126.9219597555368, "visitCount": 37, "totalAmount": 10332500, "avgAmount": 279257, "tier": "A", "institutionAmounts": {"국회의원": 10332500}, "institutionCounts": {"국회의원": 37}}, {"id": 138, "name": "정우칼국수보쌈", "address": "서울 영등포구 은행로 29", "lat": 37.5290646758205, "lng": 126.921897172451, "visitCount": 37, "totalAmount": 4954500, "avgAmount": 133905, "tier": "A", "institutionAmounts": {"국회의원": 4954500}, "institutionCounts": {"국회의원": 37}}, {"id": 139, "name": "강서구청 도로과 발진기지", "address": "서울 강서구 가양동 1485-5", "lat": 37.56017438675185, "lng": 126.86738982437406, "visitCount": 37, "totalAmount": 8912500, "avgAmount": 240878, "tier": "A", "institutionAmounts": {"국회의원": 8912500}, "institutionCounts": {"국회의원": 37}}, {"id": 140, "name": "옥인육아어울림센터", "address": "서울 종로구 자하문로17길 36", "lat": 37.5814541344936, "lng": 126.968685363643, "visitCount": 36, "totalAmount": 8908000, "avgAmount": 247444, "tier": "A", "institutionAmounts": {"국회의원": 8908000}, "institutionCounts": {"국회의원": 36}}, {"id": 141, "name": "코레일유통 서울본부", "address": "서울 용산구 청파로89길 31", "lat": 37.5531787397828, "lng": 126.967411587894, "visitCount": 36, "totalAmount": 376150, "avgAmount": 10449, "tier": "A", "institutionAmounts": {"국회의원": 376150}, "institutionCounts": {"국회의원": 36}}, {"id": 142, "name": "싸다김밥 서여의도점", "address": "서울 영등포구 국회대로66길 17", "lat": 37.52846384885305, "lng": 126.91942472133805, "visitCount": 36, "totalAmount": 1037900, "avgAmount": 28831, "tier": "A", "institutionAmounts": {"국회의원": 1037900}, "institutionCounts": {"국회의원": 36}}, {"id": 143, "name": "포도나무", "address": "서울 종로구 사직로 108-1", "lat": 37.575845089177, "lng": 126.970806895571, "visitCount": 36, "totalAmount": 6818000, "avgAmount": 189389, "tier": "A", "institutionAmounts": {"외교부": 504000, "통일부": 6314000}, "institutionCounts": {"외교부": 5, "통일부": 31}}, {"id": 144, "name": "순정", "address": "서울 중구 세종대로 39", "lat": 37.5607054524994, "lng": 126.973764572166, "visitCount": 36, "totalAmount": 1386000, "avgAmount": 38500, "tier": "A", "institutionAmounts": {"국회의원": 1386000}, "institutionCounts": {"국회의원": 36}}, {"id": 145, "name": "서순금류", "address": "서울 종로구 새문안로3길 36", "lat": 37.5733877531782, "lng": 126.973243929553, "visitCount": 35, "totalAmount": 4067000, "avgAmount": 116200, "tier": "A", "institutionAmounts": {"외교부": 418000, "통일부": 3649000}, "institutionCounts": {"외교부": 4, "통일부": 31}}, {"id": 146, "name": "모도우 광화문점", "address": "서울 종로구 율곡로 6", "lat": 37.57548579106395, "lng": 126.98050972284946, "visitCount": 35, "totalAmount": 7010500, "avgAmount": 200300, "tier": "A", "institutionAmounts": {"국회의원": 1465500, "외교부": 2022000, "통일부": 3523000}, "institutionCounts": {"국회의원": 4, "외교부": 5, "통일부": 26}}, {"id": 147, "name": "해봉정육 무교점", "address": "서울 중구 청계천로 24", "lat": 37.5685093348918, "lng": 126.980202523604, "visitCount": 35, "totalAmount": 9957197, "avgAmount": 284491, "tier": "A", "institutionAmounts": {"국회의원": 9121767, "외교부": 835430}, "institutionCounts": {"국회의원": 32, "외교부": 3}}, {"id": 148, "name": "OK초밥", "address": "서울 은평구 응암로4길 22", "lat": 37.5867977447156, "lng": 126.917742826705, "visitCount": 35, "totalAmount": 3439130, "avgAmount": 98261, "tier": "A", "institutionAmounts": {"국회의원": 3439130}, "institutionCounts": {"국회의원": 35}}, {"id": 149, "name": "The 94", "address": "서울 종로구 자하문로10길 10-32", "lat": 37.5789844349357, "lng": 126.9719694581439, "visitCount": 35, "totalAmount": 4470000, "avgAmount": 127714, "tier": "A", "institutionAmounts": {"외교부": 2116000, "통일부": 2354000}, "institutionCounts": {"외교부": 14, "통일부": 21}}, {"id": 150, "name": "송죽장", "address": "서울 영등포구 문래로 203", "lat": 37.51825083573122, "lng": 126.90469880525212, "visitCount": 34, "totalAmount": 1687000, "avgAmount": 49618, "tier": "A", "institutionAmounts": {"국회의원": 1687000}, "institutionCounts": {"국회의원": 34}}, {"id": 151, "name": "(사단)지혜로운여성", "address": "서울 종로구 우정국로 45-13", "lat": 37.5729425217459, "lng": 126.982014811359, "visitCount": 34, "totalAmount": 5191000, "avgAmount": 152676, "tier": "A", "institutionAmounts": {"외교부": 1022000, "통일부": 4169000}, "institutionCounts": {"외교부": 9, "통일부": 25}}, {"id": 152, "name": "한입원바이트", "address": "서울 영등포구 국회대로 780", "lat": 37.52961424130688, "lng": 126.91915196159646, "visitCount": 34, "totalAmount": 3412900, "avgAmount": 100379, "tier": "A", "institutionAmounts": {"국회의원": 3412900}, "institutionCounts": {"국회의원": 34}}, {"id": 153, "name": "영광법성포굴비", "address": "서울 종로구 창경궁로 88", "lat": 37.57052742157583, "lng": 127.00052409828096, "visitCount": 34, "totalAmount": 3043000, "avgAmount": 89500, "tier": "A", "institutionAmounts": {"국회의원": 3043000}, "institutionCounts": {"국회의원": 34}}, {"id": 154, "name": "해송복집", "address": "서울 영등포구 여의공원로 115", "lat": 37.530051361849, "lng": 126.926240525764, "visitCount": 34, "totalAmount": 4951000, "avgAmount": 145618, "tier": "A", "institutionAmounts": {"국회의원": 4951000}, "institutionCounts": {"국회의원": 34}}, {"id": 155, "name": "서리원 마포본점", "address": "서울 마포구 마포대로 173", "lat": 37.550150700691, "lng": 126.954448684603, "visitCount": 34, "totalAmount": 5884500, "avgAmount": 173074, "tier": "A", "institutionAmounts": {"국회의원": 5884500}, "institutionCounts": {"국회의원": 34}}, {"id": 156, "name": "혼복집", "address": "서울 영등포구 국회대로70길 19", "lat": 37.5292045269066, "lng": 126.920838095481, "visitCount": 34, "totalAmount": 5615000, "avgAmount": 165147, "tier": "A", "institutionAmounts": {"국회의원": 5615000}, "institutionCounts": {"국회의원": 34}}, {"id": 157, "name": "수석김밥", "address": "서울 중구 을지로 지하 88", "lat": 37.566153259633, "lng": 126.986870011796, "visitCount": 34, "totalAmount": 3210000, "avgAmount": 94412, "tier": "A", "institutionAmounts": {"국회의원": 3210000}, "institutionCounts": {"국회의원": 34}}, {"id": 158, "name": "모도우 여의도점", "address": "서울 영등포구 국제금융로2길 32", "lat": 37.5238601476218, "lng": 126.924137960188, "visitCount": 33, "totalAmount": 7935500, "avgAmount": 240470, "tier": "A", "institutionAmounts": {"국회의원": 7935500}, "institutionCounts": {"국회의원": 33}}, {"id": 159, "name": "가양칼국수", "address": "서울 영등포구 국제금융로 86", "lat": 37.52020584896475, "lng": 126.93179988990671, "visitCount": 33, "totalAmount": 1595000, "avgAmount": 48333, "tier": "A", "institutionAmounts": {"국회의원": 1595000}, "institutionCounts": {"국회의원": 33}}, {"id": 160, "name": "아크앤북 TP타워여의도점", "address": "서울 영등포구 의사당대로 96", "lat": 37.5215483023316, "lng": 126.922942337782, "visitCount": 33, "totalAmount": 7061900, "avgAmount": 213997, "tier": "A", "institutionAmounts": {"국회의원": 7061900}, "institutionCounts": {"국회의원": 33}}, {"id": 161, "name": "진가와 광화문점", "address": "서울 종로구 종로1길 50", "lat": 37.57472599586643, "lng": 126.97901225145198, "visitCount": 33, "totalAmount": 3730700, "avgAmount": 113052, "tier": "A", "institutionAmounts": {"국회의원": 151000, "외교부": 2334700, "통일부": 1245000}, "institutionCounts": {"국회의원": 3, "외교부": 19, "통일부": 11}}, {"id": 162, "name": "화목순대국 광화문1호점", "address": "서울 종로구 새문안로5길 11", "lat": 37.5711932576364, "lng": 126.97473438948012, "visitCount": 33, "totalAmount": 2459000, "avgAmount": 74515, "tier": "A", "institutionAmounts": {"국회의원": 2459000}, "institutionCounts": {"국회의원": 33}}, {"id": 163, "name": "한일관 영등포타임스퀘어점", "address": "서울 영등포구 영중로 15", "lat": 37.5174106532167, "lng": 126.904145606079, "visitCount": 32, "totalAmount": 4988000, "avgAmount": 155875, "tier": "A", "institutionAmounts": {"외교부": 364000, "통일부": 4624000}, "institutionCounts": {"외교부": 3, "통일부": 29}}, {"id": 164, "name": "케이터틀", "address": "서울 마포구 백범로 23", "lat": 37.55260097777254, "lng": 126.93770609702968, "visitCount": 32, "totalAmount": 3353000, "avgAmount": 104781, "tier": "A", "institutionAmounts": {"국회의원": 3353000}, "institutionCounts": {"국회의원": 32}}, {"id": 165, "name": "폴바셋 여의도국회대로점", "address": "서울 영등포구 국회대로68길 17", "lat": 37.52886064697709, "lng": 126.9199503636642, "visitCount": 32, "totalAmount": 882600, "avgAmount": 27581, "tier": "A", "institutionAmounts": {"국회의원": 882600}, "institutionCounts": {"국회의원": 32}}, {"id": 166, "name": "중원 내자점", "address": "서울 종로구 사직로12길 28", "lat": 37.574835077158674, "lng": 126.97081861012396, "visitCount": 32, "totalAmount": 6215000, "avgAmount": 194219, "tier": "A", "institutionAmounts": {"국회의원": 240000, "외교부": 2830000, "통일부": 3145000}, "institutionCounts": {"국회의원": 1, "외교부": 9, "통일부": 22}}, {"id": 167, "name": "부영각 주차장", "address": "서울 마포구 토정로 268", "lat": 37.5425314548531, "lng": 126.939513621726, "visitCount": 32, "totalAmount": 6603000, "avgAmount": 206344, "tier": "A", "institutionAmounts": {"국회의원": 6603000}, "institutionCounts": {"국회의원": 32}}, {"id": 168, "name": "황씨네대가추어탕", "address": "서울 종로구 삼봉로 81", "lat": 37.5724307253892, "lng": 126.981811176141, "visitCount": 32, "totalAmount": 2895000, "avgAmount": 90469, "tier": "A", "institutionAmounts": {"종로구의회": 2895000}, "institutionCounts": {"종로구의회": 32}}, {"id": 169, "name": "뚝배기양평해장국 종로구청점", "address": "서울 종로구 종로5길 58", "lat": 37.572942231540814, "lng": 126.98020135021198, "visitCount": 31, "totalAmount": 1383000, "avgAmount": 44613, "tier": "A", "institutionAmounts": {"국회의원": 1383000}, "institutionCounts": {"국회의원": 31}}, {"id": 170, "name": "바르다김선생 광화문점", "address": "서울 종로구 사직로8길 42", "lat": 37.5737552857435, "lng": 126.972922307064, "visitCount": 31, "totalAmount": 3109700, "avgAmount": 100313, "tier": "A", "institutionAmounts": {"국회의원": 2861600, "외교부": 248100}, "institutionCounts": {"국회의원": 29, "외교부": 2}}, {"id": 171, "name": "오토김밥 여의도점", "address": "서울 영등포구 의사당대로 127", "lat": 37.52024045353924, "lng": 126.92640629015392, "visitCount": 30, "totalAmount": 2257700, "avgAmount": 75257, "tier": "A", "institutionAmounts": {"국회의원": 2257700}, "institutionCounts": {"국회의원": 30}}, {"id": 172, "name": "해빔 광화문점", "address": "서울 종로구 새문안로3길 3", "lat": 37.5707422411517, "lng": 126.972416277618, "visitCount": 30, "totalAmount": 3058000, "avgAmount": 101933, "tier": "A", "institutionAmounts": {"국회의원": 3058000}, "institutionCounts": {"국회의원": 30}}, {"id": 173, "name": "한뫼촌", "address": "서울 종로구 북촌로 24-4", "lat": 37.5789147973046, "lng": 126.985536434897, "visitCount": 30, "totalAmount": 6352000, "avgAmount": 211733, "tier": "A", "institutionAmounts": {"통일부": 6352000}, "institutionCounts": {"통일부": 30}}, {"id": 174, "name": "대교반점", "address": "서울 영등포구 국제금융로7길 22", "lat": 37.5232222011313, "lng": 126.933016627962, "visitCount": 30, "totalAmount": 1691500, "avgAmount": 56383, "tier": "A", "institutionAmounts": {"국회의원": 1691500}, "institutionCounts": {"국회의원": 30}}, {"id": 175, "name": "송추가마골 인어반 광화문점", "address": "서울 종로구 새문안로5길 31", "lat": 37.5731717655549, "lng": 126.974376008547, "visitCount": 30, "totalAmount": 6646000, "avgAmount": 221533, "tier": "A", "institutionAmounts": {"국회의원": 2752000, "외교부": 852000, "종로구의회": 1908000, "종로구청": 274000, "통일부": 860000}, "institutionCounts": {"국회의원": 4, "외교부": 8, "종로구의회": 11, "종로구청": 1, "통일부": 6}}, {"id": 176, "name": "카페마마스 광화문점", "address": "서울 종로구 종로1길 50", "lat": 37.5746863577333, "lng": 126.979043959267, "visitCount": 30, "totalAmount": 3865100, "avgAmount": 128837, "tier": "A", "institutionAmounts": {"국회의원": 49400, "외교부": 23600, "통일부": 3792100}, "institutionCounts": {"국회의원": 3, "외교부": 1, "통일부": 26}}, {"id": 177, "name": "더센다이", "address": "서울 마포구 큰우물로 75", "lat": 37.541162514261885, "lng": 126.9463015695379, "visitCount": 29, "totalAmount": 6147000, "avgAmount": 211966, "tier": "A", "institutionAmounts": {"국회의원": 6147000}, "institutionCounts": {"국회의원": 29}}, {"id": 178, "name": "소호정 동여의도점", "address": "서울 영등포구 국제금융로 86", "lat": 37.5202049466628, "lng": 126.931797628326, "visitCount": 29, "totalAmount": 3305000, "avgAmount": 113966, "tier": "A", "institutionAmounts": {"국회의원": 3305000}, "institutionCounts": {"국회의원": 29}}, {"id": 179, "name": "부산숯불갈비", "address": "서울 중구 마른내로 107-1", "lat": 37.5646114843664, "lng": 126.999936615156, "visitCount": 29, "totalAmount": 3985940, "avgAmount": 137446, "tier": "A", "institutionAmounts": {"국회의원": 3985940}, "institutionCounts": {"국회의원": 29}}, {"id": 180, "name": "모연의전통이야기", "address": "서울 종로구 사직로 105", "lat": 37.5762883210727, "lng": 126.970575784564, "visitCount": 29, "totalAmount": 7757000, "avgAmount": 267483, "tier": "A", "institutionAmounts": {"국회의원": 7757000}, "institutionCounts": {"국회의원": 29}}, {"id": 181, "name": "파리바게뜨 국회의사당점", "address": "서울 영등포구 의사당대로 1", "lat": 37.53024933344928, "lng": 126.91266523256164, "visitCount": 29, "totalAmount": 628650, "avgAmount": 21678, "tier": "A", "institutionAmounts": {"국회의원": 628650}, "institutionCounts": {"국회의원": 29}}, {"id": 182, "name": "운봉에덴식당 여의도점", "address": "서울 영등포구 의사당대로 127", "lat": 37.520255749428, "lng": 126.926372339083, "visitCount": 29, "totalAmount": 1628800, "avgAmount": 56166, "tier": "A", "institutionAmounts": {"국회의원": 1628800}, "institutionCounts": {"국회의원": 29}}, {"id": 183, "name": "서강껍데기소금구이 성신여대점", "address": "서울 성북구 고려대로7길 78", "lat": 37.588972855014, "lng": 127.018926540729, "visitCount": 29, "totalAmount": 1759000, "avgAmount": 60655, "tier": "A", "institutionAmounts": {"국회의원": 1759000}, "institutionCounts": {"국회의원": 29}}, {"id": 184, "name": "이화수전통육개장 서울무교점", "address": "서울 중구 다동길 16", "lat": 37.5677849286913, "lng": 126.980168757724, "visitCount": 29, "totalAmount": 1495450, "avgAmount": 51567, "tier": "A", "institutionAmounts": {"국회의원": 1495450}, "institutionCounts": {"국회의원": 29}}, {"id": 185, "name": "색동저고리 마포직영점", "address": "서울 마포구 도화길 27", "lat": 37.5409257978103, "lng": 126.948887248651, "visitCount": 29, "totalAmount": 3670300, "avgAmount": 126562, "tier": "A", "institutionAmounts": {"국회의원": 3670300}, "institutionCounts": {"국회의원": 29}}, {"id": 186, "name": "토마토김밥 파인에비뉴점", "address": "서울 중구 을지로 100", "lat": 37.5656488364947, "lng": 126.988142342329, "visitCount": 28, "totalAmount": 349200, "avgAmount": 12471, "tier": "A", "institutionAmounts": {"국회의원": 349200}, "institutionCounts": {"국회의원": 28}}, {"id": 187, "name": "호화반점", "address": "서울 용산구 원효로 192", "lat": 37.5363686580483, "lng": 126.963839012037, "visitCount": 28, "totalAmount": 2694000, "avgAmount": 96214, "tier": "A", "institutionAmounts": {"국회의원": 2694000}, "institutionCounts": {"국회의원": 28}}, {"id": 188, "name": "강촌숯불닭갈비", "address": "서울 용산구 한강대로104길 63", "lat": 37.5502579189921, "lng": 126.975800687099, "visitCount": 28, "totalAmount": 2686000, "avgAmount": 95929, "tier": "A", "institutionAmounts": {"국회의원": 251000, "통일부": 2435000}, "institutionCounts": {"국회의원": 2, "통일부": 26}}, {"id": 189, "name": "주유별장", "address": "서울 종로구 종로3길 17", "lat": 37.57138325417415, "lng": 126.9787301958412, "visitCount": 28, "totalAmount": 2606600, "avgAmount": 93093, "tier": "A", "institutionAmounts": {"국회의원": 200000, "외교부": 988500, "통일부": 1418100}, "institutionCounts": {"국회의원": 1, "외교부": 8, "통일부": 19}}, {"id": 190, "name": "전주영양찰솥밥", "address": "서울 성동구 한림말길 18", "lat": 37.540732510360336, "lng": 127.01306895362497, "visitCount": 28, "totalAmount": 1113500, "avgAmount": 39768, "tier": "A", "institutionAmounts": {"국회의원": 1113500}, "institutionCounts": {"국회의원": 28}}, {"id": 191, "name": "왕왕", "address": "서울 서대문구 연희맛로 27", "lat": 37.5676002502749, "lng": 126.930323694974, "visitCount": 28, "totalAmount": 3488000, "avgAmount": 124571, "tier": "A", "institutionAmounts": {"국회의원": 3488000}, "institutionCounts": {"국회의원": 28}}, {"id": 192, "name": "삼정하누 광화문점", "address": "서울 종로구 사직로8길 11", "lat": 37.5750691721849, "lng": 126.970164205185, "visitCount": 28, "totalAmount": 4123800, "avgAmount": 147279, "tier": "A", "institutionAmounts": {"외교부": 1122000, "통일부": 3001800}, "institutionCounts": {"외교부": 15, "통일부": 13}}, {"id": 193, "name": "브라더한정식도시락 여의도점", "address": "서울 영등포구 은행로 58", "lat": 37.5299640014349, "lng": 126.924869417769, "visitCount": 28, "totalAmount": 3445900, "avgAmount": 123068, "tier": "A", "institutionAmounts": {"국회의원": 3445900}, "institutionCounts": {"국회의원": 28}}, {"id": 194, "name": "테이엔", "address": "서울 종로구 경희궁2길 14-6", "lat": 37.57272691652369, "lng": 126.97150315768506, "visitCount": 28, "totalAmount": 1880000, "avgAmount": 67143, "tier": "A", "institutionAmounts": {"외교부": 1203000, "통일부": 677000}, "institutionCounts": {"외교부": 17, "통일부": 11}}, {"id": 195, "name": "고향맛집", "address": "서울 종로구 종로5길 86", "lat": 37.5740702215519, "lng": 126.979872767144, "visitCount": 27, "totalAmount": 2085000, "avgAmount": 77222, "tier": "A", "institutionAmounts": {"국회의원": 2085000}, "institutionCounts": {"국회의원": 27}}, {"id": 196, "name": "곤지암할매소머리국밥 종로낙원점", "address": "서울 종로구 종로17길 46", "lat": 37.57218197272218, "lng": 126.9883156325673, "visitCount": 27, "totalAmount": 848000, "avgAmount": 31407, "tier": "A", "institutionAmounts": {"국회의원": 848000}, "institutionCounts": {"국회의원": 27}}, {"id": 197, "name": "함경진순대", "address": "서울 영등포구 국회대로74길 20", "lat": 37.5296122593619, "lng": 126.921557198639, "visitCount": 27, "totalAmount": 1057000, "avgAmount": 39148, "tier": "A", "institutionAmounts": {"국회의원": 1057000}, "institutionCounts": {"국회의원": 27}}, {"id": 198, "name": "한일관 광화문점", "address": "서울 종로구 종로1길 50", "lat": 37.5747043760181, "lng": 126.979034898018, "visitCount": 27, "totalAmount": 4208000, "avgAmount": 155852, "tier": "A", "institutionAmounts": {"국회의원": 1155000, "외교부": 1565000, "통일부": 1488000}, "institutionCounts": {"국회의원": 6, "외교부": 8, "통일부": 13}}, {"id": 199, "name": "하나로마트 국회점", "address": "서울 영등포구 의사당대로 1", "lat": 37.530321392565554, "lng": 126.91263686470592, "visitCount": 27, "totalAmount": 1466380, "avgAmount": 54310, "tier": "A", "institutionAmounts": {"국회의원": 1466380}, "institutionCounts": {"국회의원": 27}}, {"id": 200, "name": "홍성원 본점", "address": "서울 종로구 삼봉로 95", "lat": 37.57234791258865, "lng": 126.98232964736609, "visitCount": 27, "totalAmount": 4007000, "avgAmount": 148407, "tier": "A", "institutionAmounts": {"국회의원": 1023000, "종로구의회": 2984000}, "institutionCounts": {"국회의원": 4, "종로구의회": 23}}, {"id": 201, "name": "파리크라상 여의도2호점", "address": "서울 영등포구 국회대로74길 12", "lat": 37.5300444473266, "lng": 126.921117782475, "visitCount": 26, "totalAmount": 789650, "avgAmount": 30371, "tier": "A", "institutionAmounts": {"국회의원": 789650}, "institutionCounts": {"국회의원": 26}}, {"id": 202, "name": "코엔", "address": "서울 마포구 월드컵북로4길 30", "lat": 37.5575394625052, "lng": 126.921302711154, "visitCount": 26, "totalAmount": 5057000, "avgAmount": 194500, "tier": "A", "institutionAmounts": {"국회의원": 5057000}, "institutionCounts": {"국회의원": 26}}, {"id": 203, "name": "나라회관 종로점", "address": "서울 종로구 삼봉로 80-18", "lat": 37.5718928289, "lng": 126.981795459203, "visitCount": 26, "totalAmount": 1348000, "avgAmount": 51846, "tier": "A", "institutionAmounts": {"국회의원": 45000, "종로구의회": 1303000}, "institutionCounts": {"국회의원": 3, "종로구의회": 23}}, {"id": 204, "name": "보나베띠 명동점", "address": "서울 중구 명동10길 51", "lat": 37.5616013268393, "lng": 126.986006095089, "visitCount": 26, "totalAmount": 3606100, "avgAmount": 138696, "tier": "A", "institutionAmounts": {"국회의원": 3606100}, "institutionCounts": {"국회의원": 26}}, {"id": 205, "name": "경복궁 고궁뜨락", "address": "서울 종로구 효자로 12", "lat": 37.5765920701817, "lng": 126.97497708903, "visitCount": 26, "totalAmount": 2086900, "avgAmount": 80265, "tier": "A", "institutionAmounts": {"국회의원": 2086900}, "institutionCounts": {"국회의원": 26}}, {"id": 206, "name": "경복궁 광화문 월대", "address": "서울 종로구 세종로 1-58", "lat": 37.5757437132805, "lng": 126.976838447752, "visitCount": 26, "totalAmount": 5334000, "avgAmount": 205154, "tier": "A", "institutionAmounts": {"국회의원": 5253000, "통일부": 81000}, "institutionCounts": {"국회의원": 25, "통일부": 1}}, {"id": 207, "name": "복먹고복받고", "address": "서울 영등포구 양산로19길 8", "lat": 37.52486510635703, "lng": 126.8951424648921, "visitCount": 26, "totalAmount": 4755000, "avgAmount": 182885, "tier": "A", "institutionAmounts": {"국회의원": 4755000}, "institutionCounts": {"국회의원": 26}}, {"id": 208, "name": "유림투자개발", "address": "서울 종로구 자하문로 30", "lat": 37.5787897976235, "lng": 126.971874435821, "visitCount": 26, "totalAmount": 2172000, "avgAmount": 83538, "tier": "A", "institutionAmounts": {"국회의원": 2172000}, "institutionCounts": {"국회의원": 26}}, {"id": 209, "name": "동원참치 광화문본점", "address": "서울 종로구 사직로 130", "lat": 37.575395172333, "lng": 126.973256795759, "visitCount": 26, "totalAmount": 2366000, "avgAmount": 91000, "tier": "A", "institutionAmounts": {"외교부": 1451000, "통일부": 950000}, "institutionCounts": {"국회의원": 2, "외교부": 15, "통일부": 9}}, {"id": 210, "name": "대선칼국수 서울점", "address": "서울 종로구 자하문로4길 6", "lat": 37.57719341279043, "lng": 126.97262672584178, "visitCount": 26, "totalAmount": 2626700, "avgAmount": 101027, "tier": "A", "institutionAmounts": {"통일부": 2626700}, "institutionCounts": {"통일부": 26}}, {"id": 211, "name": "박군자 진주냉면 본점", "address": "서울 중구 을지로3길 30-5", "lat": 37.56767886971853, "lng": 126.98177271450636, "visitCount": 26, "totalAmount": 3014500, "avgAmount": 115942, "tier": "A", "institutionAmounts": {"국회의원": 3014500}, "institutionCounts": {"국회의원": 26}}, {"id": 212, "name": "시원재", "address": "서울 영등포구 국회대로 750", "lat": 37.52832406578816, "lng": 126.91664407882716, "visitCount": 26, "totalAmount": 1069000, "avgAmount": 41115, "tier": "A", "institutionAmounts": {"국회의원": 1069000}, "institutionCounts": {"국회의원": 26}}, {"id": 213, "name": "대여죽집", "address": "서울 영등포구 여의대방로67길 22", "lat": 37.5207012570397, "lng": 126.930014392196, "visitCount": 25, "totalAmount": 2229100, "avgAmount": 89164, "tier": "A", "institutionAmounts": {"국회의원": 2229100}, "institutionCounts": {"국회의원": 25}}, {"id": 214, "name": "을정", "address": "서울 종로구 새문안로3길 36", "lat": 37.5734310070829, "lng": 126.973271082213, "visitCount": 25, "totalAmount": 2930000, "avgAmount": 117200, "tier": "A", "institutionAmounts": {"외교부": 2703000, "통일부": 227000}, "institutionCounts": {"외교부": 22, "통일부": 3}}, {"id": 215, "name": "바닷가작은부엌 경희궁점", "address": "서울 종로구 새문안로 38", "lat": 37.56836296131248, "lng": 126.96975485817494, "visitCount": 25, "totalAmount": 4211000, "avgAmount": 168440, "tier": "A", "institutionAmounts": {"국회의원": 2792000, "외교부": 283000, "통일부": 1136000}, "institutionCounts": {"국회의원": 20, "외교부": 1, "통일부": 4}}, {"id": 216, "name": "리틀비엣남 수유", "address": "서울 강북구 덕릉로 14", "lat": 37.63382283062299, "lng": 127.0151788777159, "visitCount": 25, "totalAmount": 1443000, "avgAmount": 57720, "tier": "A", "institutionAmounts": {"국회의원": 1443000}, "institutionCounts": {"국회의원": 25}}, {"id": 217, "name": "길풍식당", "address": "서울 영등포구 양평로 118", "lat": 37.53781203059194, "lng": 126.89462649299568, "visitCount": 25, "totalAmount": 2018000, "avgAmount": 80720, "tier": "A", "institutionAmounts": {"국회의원": 2018000}, "institutionCounts": {"국회의원": 25}}, {"id": 218, "name": "아미원", "address": "서울 마포구 신촌로12가길 38", "lat": 37.5551941187692, "lng": 126.934504539039, "visitCount": 24, "totalAmount": 4485000, "avgAmount": 186875, "tier": "A", "institutionAmounts": {"국회의원": 4485000}, "institutionCounts": {"국회의원": 24}}, {"id": 219, "name": "성가백암순대", "address": "서울 종로구 삼봉로 81", "lat": 37.57233701107422, "lng": 126.98174101560797, "visitCount": 24, "totalAmount": 1163000, "avgAmount": 48458, "tier": "A", "institutionAmounts": {"국회의원": 32000, "종로구의회": 1131000}, "institutionCounts": {"국회의원": 2, "종로구의회": 22}}, {"id": 220, "name": "프라임한우", "address": "서울 영등포구 은행로 25", "lat": 37.52864260634647, "lng": 126.9212934832553, "visitCount": 24, "totalAmount": 5262000, "avgAmount": 219250, "tier": "A", "institutionAmounts": {"국회의원": 4932000, "외교부": 330000}, "institutionCounts": {"국회의원": 23, "외교부": 1}}, {"id": 221, "name": "풀무원푸드앤컬처", "address": "서울 종로구 세종대로 209", "lat": 37.574909061267, "lng": 126.975208585906, "visitCount": 24, "totalAmount": 3554750, "avgAmount": 148115, "tier": "A", "institutionAmounts": {"국회의원": 61000, "외교부": 508750, "통일부": 2985000}, "institutionCounts": {"국회의원": 3, "외교부": 8, "통일부": 13}}, {"id": 222, "name": "금용문", "address": "서울 종로구 새문안로5가길 7", "lat": 37.5727608396843, "lng": 126.974045606652, "visitCount": 24, "totalAmount": 5703500, "avgAmount": 237646, "tier": "A", "institutionAmounts": {"외교부": 1635000, "통일부": 4068500}, "institutionCounts": {"외교부": 8, "통일부": 16}}, {"id": 223, "name": "김가네대청마루", "address": "서울 종로구 인사동4길 17", "lat": 37.57409644740543, "lng": 126.98698181891268, "visitCount": 24, "totalAmount": 1087600, "avgAmount": 45317, "tier": "A", "institutionAmounts": {"국회의원": 1078600, "종로구의회": 9000}, "institutionCounts": {"국회의원": 23, "종로구의회": 1}}, {"id": 224, "name": "VIP참치 뉴서울호텔점", "address": "서울 중구 세종대로22길 16", "lat": 37.567989101168, "lng": 126.978165199358, "visitCount": 24, "totalAmount": 5180000, "avgAmount": 215833, "tier": "A", "institutionAmounts": {"국회의원": 5100000, "통일부": 80000}, "institutionCounts": {"국회의원": 23, "통일부": 1}}, {"id": 225, "name": "송담추어탕 금호점", "address": "서울 성동구 금호산2길 8", "lat": 37.5487287335571, "lng": 127.020442931987, "visitCount": 24, "totalAmount": 618500, "avgAmount": 25771, "tier": "A", "institutionAmounts": {"국회의원": 618500}, "institutionCounts": {"국회의원": 24}}, {"id": 226, "name": "박명도봉평메밀막국수 본점", "address": "서울 용산구 원효로 184", "lat": 37.535910708905085, "lng": 126.96306080366918, "visitCount": 24, "totalAmount": 539000, "avgAmount": 22458, "tier": "A", "institutionAmounts": {"국회의원": 539000}, "institutionCounts": {"국회의원": 24}}, {"id": 227, "name": "남해돌수산 대흥본점", "address": "서울 마포구 백범로 104", "lat": 37.5472876821698, "lng": 126.942835580783, "visitCount": 23, "totalAmount": 2336000, "avgAmount": 101565, "tier": "A", "institutionAmounts": {"국회의원": 2336000}, "institutionCounts": {"국회의원": 23}}, {"id": 228, "name": "오토김밥 중구점", "address": "서울 중구 서소문로9길 28", "lat": 37.56373649241442, "lng": 126.97032831740606, "visitCount": 23, "totalAmount": 1363500, "avgAmount": 59283, "tier": "A", "institutionAmounts": {"국회의원": 1363500}, "institutionCounts": {"국회의원": 23}}, {"id": 229, "name": "맥도날드 압구정CGV점", "address": "서울 강남구 논현로 848", "lat": 37.52450087809165, "lng": 127.02884728131978, "visitCount": 23, "totalAmount": 396100, "avgAmount": 17222, "tier": "A", "institutionAmounts": {"국회의원": 396100}, "institutionCounts": {"국회의원": 23}}, {"id": 230, "name": "양평신내서울해장국 마포직영점", "address": "서울 마포구 토정로31길 24", "lat": 37.54093014419544, "lng": 126.9445422319309, "visitCount": 23, "totalAmount": 833000, "avgAmount": 36217, "tier": "A", "institutionAmounts": {"국회의원": 833000}, "institutionCounts": {"국회의원": 23}}, {"id": 231, "name": "호텔엠", "address": "서울 중구 남대문로5길 15", "lat": 37.56207596819464, "lng": 126.9787396330846, "visitCount": 23, "totalAmount": 921800, "avgAmount": 40078, "tier": "A", "institutionAmounts": {"국회의원": 921800}, "institutionCounts": {"국회의원": 23}}, {"id": 232, "name": "밥플러스", "address": "서울 종로구 옥인길 9", "lat": 37.5804646576852, "lng": 126.967992925452, "visitCount": 23, "totalAmount": 1930000, "avgAmount": 83913, "tier": "A", "institutionAmounts": {"종로구의회": 1930000}, "institutionCounts": {"종로구의회": 23}}, {"id": 233, "name": "어펜딕스 여의도본점", "address": "서울 영등포구 의사당대로 8", "lat": 37.5278719387513, "lng": 126.91689347157, "visitCount": 23, "totalAmount": 1640400, "avgAmount": 71322, "tier": "A", "institutionAmounts": {"국회의원": 1640400}, "institutionCounts": {"국회의원": 23}}, {"id": 234, "name": "농농", "address": "서울 영등포구 국회대로70길 7", "lat": 37.5301516220541, "lng": 126.91971479437, "visitCount": 23, "totalAmount": 2047000, "avgAmount": 89000, "tier": "A", "institutionAmounts": {"국회의원": 2047000}, "institutionCounts": {"국회의원": 23}}, {"id": 235, "name": "뒤풀이", "address": "서울 영등포구 은행로 29", "lat": 37.52899714637542, "lng": 126.9219662542093, "visitCount": 23, "totalAmount": 933000, "avgAmount": 40565, "tier": "A", "institutionAmounts": {"국회의원": 933000}, "institutionCounts": {"국회의원": 23}}, {"id": 236, "name": "민속식당", "address": "서울 중구 남대문시장4길 42-1", "lat": 37.55826263137808, "lng": 126.97704192059577, "visitCount": 23, "totalAmount": 2431000, "avgAmount": 105696, "tier": "A", "institutionAmounts": {"국회의원": 2431000}, "institutionCounts": {"국회의원": 23}}, {"id": 237, "name": "세종문화회관 광화문아띠 지하1층 북측 개방화장실", "address": "서울 종로구 세종대로 175", "lat": 37.57264496847976, "lng": 126.97572439359564, "visitCount": 23, "totalAmount": 3539600, "avgAmount": 153896, "tier": "A", "institutionAmounts": {"외교부": 1440000, "통일부": 2099600}, "institutionCounts": {"외교부": 6, "통일부": 17}}, {"id": 238, "name": "두성금강산영업소", "address": "서울 종로구 김상옥로 68", "lat": 37.5733744500672, "lng": 127.005261558404, "visitCount": 23, "totalAmount": 2422000, "avgAmount": 105304, "tier": "A", "institutionAmounts": {"통일부": 2422000}, "institutionCounts": {"통일부": 23}}, {"id": 239, "name": "소정원", "address": "서울 성북구 동소문로 187", "lat": 37.5987526726325, "lng": 127.021539174792, "visitCount": 22, "totalAmount": 2252000, "avgAmount": 102364, "tier": "A", "institutionAmounts": {"국회의원": 2252000}, "institutionCounts": {"국회의원": 22}}, {"id": 240, "name": "울돌목가는길", "address": "서울 서초구 서초대로40길 41", "lat": 37.48979921644736, "lng": 127.00802827110806, "visitCount": 22, "totalAmount": 3708000, "avgAmount": 168545, "tier": "A", "institutionAmounts": {"국회의원": 3708000}, "institutionCounts": {"국회의원": 22}}, {"id": 241, "name": "원조우정낙지 본점", "address": "서울 종로구 삼일대로17길 46", "lat": 37.56930561301856, "lng": 126.98493723135982, "visitCount": 22, "totalAmount": 2098000, "avgAmount": 95364, "tier": "A", "institutionAmounts": {"국회의원": 2098000}, "institutionCounts": {"국회의원": 22}}, {"id": 242, "name": "모던눌랑 여의도점", "address": "서울 영등포구 국제금융로8길 31", "lat": 37.5197450228958, "lng": 126.928065107001, "visitCount": 22, "totalAmount": 4575926, "avgAmount": 207997, "tier": "A", "institutionAmounts": {"국회의원": 4112000, "외교부": 463926}, "institutionCounts": {"국회의원": 21, "외교부": 1}}, {"id": 243, "name": "바스버거 국회의사당점", "address": "서울 영등포구 국회대로 780", "lat": 37.5299295776, "lng": 126.91913125698348, "visitCount": 22, "totalAmount": 1276300, "avgAmount": 58014, "tier": "A", "institutionAmounts": {"국회의원": 1276300}, "institutionCounts": {"국회의원": 22}}, {"id": 244, "name": "밀라노베이커리", "address": "서울 종로구 이화장길 40", "lat": 37.5770162907465, "lng": 127.004781821227, "visitCount": 22, "totalAmount": 564900, "avgAmount": 25677, "tier": "A", "institutionAmounts": {"종로구의회": 564900}, "institutionCounts": {"종로구의회": 22}}, {"id": 245, "name": "순대실록 광화문점", "address": "서울 종로구 새문안로5길 5-3", "lat": 37.5708652657573, "lng": 126.974596400326, "visitCount": 22, "totalAmount": 2167500, "avgAmount": 98523, "tier": "A", "institutionAmounts": {"국회의원": 2167500}, "institutionCounts": {"국회의원": 22}}, {"id": 246, "name": "경복궁 서교점 주차장", "address": "서울 마포구 서교동 449-13", "lat": 37.55770233277451, "lng": 126.91833957279611, "visitCount": 22, "totalAmount": 3693000, "avgAmount": 167864, "tier": "A", "institutionAmounts": {"국회의원": 3693000}, "institutionCounts": {"국회의원": 22}}, {"id": 247, "name": "해우리 여의도점", "address": "서울 영등포구 국제금융로2길 32", "lat": 37.52378270940991, "lng": 126.92421270141833, "visitCount": 22, "totalAmount": 3832000, "avgAmount": 174182, "tier": "A", "institutionAmounts": {"국회의원": 3832000}, "institutionCounts": {"국회의원": 22}}, {"id": 248, "name": "김명자굴국밥 청진점", "address": "서울 종로구 종로5길 76", "lat": 37.573792855753, "lng": 126.980715058078, "visitCount": 22, "totalAmount": 1888000, "avgAmount": 85818, "tier": "A", "institutionAmounts": {"국회의원": 1805000, "종로구의회": 83000}, "institutionCounts": {"국회의원": 20, "종로구의회": 2}}, {"id": 249, "name": "태순집", "address": "서울 마포구 토정로 313", "lat": 37.539961198868966, "lng": 126.94375882054004, "visitCount": 22, "totalAmount": 3818000, "avgAmount": 173545, "tier": "A", "institutionAmounts": {"국회의원": 3818000}, "institutionCounts": {"국회의원": 22}}, {"id": 250, "name": "한국로날드맥도날드하우스", "address": "서울 서초구 신반포로43길 42", "lat": 37.5118638048472, "lng": 127.017667394389, "visitCount": 21, "totalAmount": 462000, "avgAmount": 22000, "tier": "A", "institutionAmounts": {"국회의원": 462000}, "institutionCounts": {"국회의원": 21}}, {"id": 251, "name": "능라도 광화문점", "address": "서울 종로구 새문안로3길 15", "lat": 37.57176035187199, "lng": 126.97235703915514, "visitCount": 21, "totalAmount": 2508000, "avgAmount": 119429, "tier": "A", "institutionAmounts": {"국회의원": 870000, "외교부": 881000, "통일부": 757000}, "institutionCounts": {"국회의원": 5, "외교부": 6, "통일부": 10}}, {"id": 252, "name": "군자대한곱창 명동점", "address": "서울 중구 명동7길 18-1", "lat": 37.5645924365808, "lng": 126.984420914922, "visitCount": 21, "totalAmount": 781300, "avgAmount": 37205, "tier": "A", "institutionAmounts": {"국회의원": 781300}, "institutionCounts": {"국회의원": 21}}, {"id": 253, "name": "광화문등심당", "address": "서울 종로구 새문안로5길 19", "lat": 37.572141868086, "lng": 126.974100156789, "visitCount": 21, "totalAmount": 3108700, "avgAmount": 148033, "tier": "A", "institutionAmounts": {"종로구의회": 3108700}, "institutionCounts": {"종로구의회": 21}}, {"id": 254, "name": "몽중헌 광화문점", "address": "서울 종로구 새문안로5길 31", "lat": 37.5729762442565, "lng": 126.974351171564, "visitCount": 21, "totalAmount": 4597500, "avgAmount": 218929, "tier": "A", "institutionAmounts": {"국회의원": 1668300, "외교부": 889000, "통일부": 2040200}, "institutionCounts": {"국회의원": 8, "외교부": 2, "통일부": 11}}, {"id": 255, "name": "우아라 광화문점", "address": "서울 종로구 종로1길 50", "lat": 37.5746268804071, "lng": 126.978978318556, "visitCount": 21, "totalAmount": 3221000, "avgAmount": 153381, "tier": "A", "institutionAmounts": {"국회의원": 9000, "외교부": 3212000}, "institutionCounts": {"국회의원": 1, "외교부": 20}}, {"id": 256, "name": "경복궁 블랙 마포로이넷호텔점", "address": "서울 마포구 마포대로 67", "lat": 37.5418553730794, "lng": 126.948298219515, "visitCount": 21, "totalAmount": 2949000, "avgAmount": 140429, "tier": "A", "institutionAmounts": {"국회의원": 2949000}, "institutionCounts": {"국회의원": 21}}, {"id": 257, "name": "양지식당", "address": "서울 성북구 고려대로 47", "lat": 37.5864922386121, "lng": 127.02478393313, "visitCount": 21, "totalAmount": 1172000, "avgAmount": 55810, "tier": "A", "institutionAmounts": {"국회의원": 1172000}, "institutionCounts": {"국회의원": 21}}, {"id": 258, "name": "청담동마녀김밥 삼각지직영점", "address": "서울 용산구 한강대로 205", "lat": 37.53640344567702, "lng": 126.97257375588708, "visitCount": 21, "totalAmount": 206500, "avgAmount": 9833, "tier": "A", "institutionAmounts": {"국회의원": 206500}, "institutionCounts": {"국회의원": 21}}, {"id": 259, "name": "푸주옥 홍대점", "address": "서울 마포구 월드컵북로 35", "lat": 37.5575275887594, "lng": 126.918411064671, "visitCount": 21, "totalAmount": 604000, "avgAmount": 28762, "tier": "A", "institutionAmounts": {"국회의원": 604000}, "institutionCounts": {"국회의원": 21}}, {"id": 260, "name": "서궁피부샵", "address": "서울 종로구 새문안로3길 23", "lat": 37.57262077604189, "lng": 126.97224578578351, "visitCount": 21, "totalAmount": 3244000, "avgAmount": 154476, "tier": "A", "institutionAmounts": {"국회의원": 3244000}, "institutionCounts": {"국회의원": 21}}, {"id": 261, "name": "vip참치 광화문점", "address": "서울 종로구 새문안로5길 37", "lat": 37.5736492573016, "lng": 126.974212835656, "visitCount": 21, "totalAmount": 2390000, "avgAmount": 113810, "tier": "A", "institutionAmounts": {"외교부": 2096000, "종로구의회": 144000, "통일부": 150000}, "institutionCounts": {"외교부": 19, "종로구의회": 1, "통일부": 1}}, {"id": 262, "name": "흑돈가 명동점", "address": "서울 중구 명동7길 21", "lat": 37.5648229925441, "lng": 126.983687411651, "visitCount": 21, "totalAmount": 3708500, "avgAmount": 176595, "tier": "A", "institutionAmounts": {"국회의원": 3708500}, "institutionCounts": {"국회의원": 21}}, {"id": 263, "name": "미래에셋컨설팅 광화문미래에셋호텔", "address": "서울 종로구 새문안로 97", "lat": 37.5706816253916, "lng": 126.975363934315, "visitCount": 21, "totalAmount": 3322700, "avgAmount": 158224, "tier": "A", "institutionAmounts": {"국회의원": 1321500, "외교부": 954000, "통일부": 1047200}, "institutionCounts": {"국회의원": 13, "외교부": 1, "통일부": 7}}, {"id": 264, "name": "순남시래기 서여의도점", "address": "서울 영등포구 국회대로 780", "lat": 37.5299241994778, "lng": 126.919171991302, "visitCount": 21, "totalAmount": 1739600, "avgAmount": 82838, "tier": "A", "institutionAmounts": {"국회의원": 1739600}, "institutionCounts": {"국회의원": 21}}, {"id": 265, "name": "큰손함흥냉면", "address": "서울 종로구 새문안로5길 13", "lat": 37.57136978394, "lng": 126.974415113053, "visitCount": 21, "totalAmount": 1077000, "avgAmount": 51286, "tier": "A", "institutionAmounts": {"국회의원": 1077000}, "institutionCounts": {"국회의원": 21}}, {"id": 266, "name": "정통삼계탕원가 종로점", "address": "서울 종로구 종로5길 95", "lat": 37.5741854263305, "lng": 126.979166357482, "visitCount": 21, "totalAmount": 1526000, "avgAmount": 72667, "tier": "A", "institutionAmounts": {"국회의원": 617000, "종로구의회": 863000, "통일부": 46000}, "institutionCounts": {"국회의원": 7, "종로구의회": 13, "통일부": 1}}, {"id": 267, "name": "정오빌딩", "address": "서울 중구 무교로 12", "lat": 37.5670567875757, "lng": 126.979372086692, "visitCount": 21, "totalAmount": 3404000, "avgAmount": 162095, "tier": "A", "institutionAmounts": {"국회의원": 3404000}, "institutionCounts": {"국회의원": 21}}, {"id": 268, "name": "비봉공영주차장", "address": "서울 종로구 구기동 139-9", "lat": 37.61221913886415, "lng": 126.95654012881364, "visitCount": 21, "totalAmount": 1453000, "avgAmount": 69190, "tier": "A", "institutionAmounts": {"국회의원": 1453000}, "institutionCounts": {"국회의원": 21}}, {"id": 269, "name": "비엔에이치알커피", "address": "서울 종로구 필운대로2길 3", "lat": 37.5783098687931, "lng": 126.96945989078, "visitCount": 20, "totalAmount": 593000, "avgAmount": 29650, "tier": "A", "institutionAmounts": {"국회의원": 593000}, "institutionCounts": {"국회의원": 20}}, {"id": 270, "name": "전주현대옥 서울광화문점", "address": "서울 종로구 새문안로9길 19-1", "lat": 37.5711213730326, "lng": 126.97566262973, "visitCount": 20, "totalAmount": 1458000, "avgAmount": 72900, "tier": "A", "institutionAmounts": {"국회의원": 451000, "외교부": 485000, "통일부": 522000}, "institutionCounts": {"국회의원": 12, "외교부": 4, "통일부": 4}}, {"id": 271, "name": "봉피양 경복궁점", "address": "서울 종로구 자하문로 20", "lat": 37.5778780891186, "lng": 126.97228685331064, "visitCount": 20, "totalAmount": 3673000, "avgAmount": 183650, "tier": "A", "institutionAmounts": {"국회의원": 511000, "통일부": 3162000}, "institutionCounts": {"국회의원": 1, "통일부": 19}}, {"id": 272, "name": "민소한우 정상 광화문점", "address": "서울 종로구 종로 34", "lat": 37.569843858138185, "lng": 126.98111112732992, "visitCount": 20, "totalAmount": 5097000, "avgAmount": 254850, "tier": "A", "institutionAmounts": {"국회의원": 2924000, "외교부": 1905000, "종로구의회": 268000}, "institutionCounts": {"국회의원": 14, "외교부": 5, "종로구의회": 1}}, {"id": 273, "name": "진미식당", "address": "서울 마포구 마포대로 186-6", "lat": 37.550608920427024, "lng": 126.95579734486304, "visitCount": 20, "totalAmount": 4032000, "avgAmount": 201600, "tier": "A", "institutionAmounts": {"국회의원": 4032000}, "institutionCounts": {"국회의원": 20}}, {"id": 274, "name": "홍반장신의주찹쌀순대&감자탕", "address": "서울 마포구 월드컵로 192", "lat": 37.5643535623979, "lng": 126.9029592826958, "visitCount": 20, "totalAmount": 678000, "avgAmount": 33900, "tier": "A", "institutionAmounts": {"국회의원": 678000}, "institutionCounts": {"국회의원": 20}}, {"id": 275, "name": "신도세기 종로구청점", "address": "서울 종로구 삼봉로 84", "lat": 37.57203248488135, "lng": 126.98180674505444, "visitCount": 20, "totalAmount": 2716500, "avgAmount": 135825, "tier": "A", "institutionAmounts": {"국회의원": 2029500, "종로구의회": 687000}, "institutionCounts": {"국회의원": 8, "종로구의회": 12}}, {"id": 276, "name": "대성닭한마리 충무로본점", "address": "서울 중구 마른내로2길 30", "lat": 37.56330113011398, "lng": 126.99150544785938, "visitCount": 20, "totalAmount": 2699000, "avgAmount": 134950, "tier": "A", "institutionAmounts": {"국회의원": 2699000}, "institutionCounts": {"국회의원": 20}}, {"id": 277, "name": "제주은희네해장국 홍대점", "address": "서울 마포구 월드컵북로 43", "lat": 37.5580425765277, "lng": 126.91785932993214, "visitCount": 20, "totalAmount": 428000, "avgAmount": 21400, "tier": "A", "institutionAmounts": {"국회의원": 428000}, "institutionCounts": {"국회의원": 20}}, {"id": 278, "name": "해물명가구룡포 영등포점", "address": "서울 영등포구 영신로54길 8-2", "lat": 37.5262438993264, "lng": 126.903921622091, "visitCount": 20, "totalAmount": 2407000, "avgAmount": 120350, "tier": "A", "institutionAmounts": {"국회의원": 2407000}, "institutionCounts": {"국회의원": 20}}, {"id": 279, "name": "지리산어탕국수", "address": "서울 마포구 양화로3길 23", "lat": 37.54997125493665, "lng": 126.91137364622388, "visitCount": 20, "totalAmount": 504000, "avgAmount": 25200, "tier": "A", "institutionAmounts": {"국회의원": 504000}, "institutionCounts": {"국회의원": 20}}, {"id": 280, "name": "일일향 광화문점", "address": "서울 종로구 새문안로3길 15", "lat": 37.5717044774438, "lng": 126.97230272479, "visitCount": 20, "totalAmount": 3948000, "avgAmount": 197400, "tier": "A", "institutionAmounts": {"국회의원": 758000, "외교부": 1896000, "통일부": 1294000}, "institutionCounts": {"국회의원": 3, "외교부": 10, "통일부": 7}}, {"id": 281, "name": "한암동 여의도점", "address": "서울 영등포구 국제금융로2길 32", "lat": 37.5238601476218, "lng": 126.924137960188, "visitCount": 20, "totalAmount": 3053500, "avgAmount": 152675, "tier": "A", "institutionAmounts": {"국회의원": 3053500}, "institutionCounts": {"국회의원": 20}}, {"id": 282, "name": "레스케이프 서울 명동", "address": "서울 중구 퇴계로 67", "lat": 37.56001279494431, "lng": 126.97935591995754, "visitCount": 20, "totalAmount": 2537100, "avgAmount": 126855, "tier": "A", "institutionAmounts": {"국회의원": 1930100, "외교부": 607000}, "institutionCounts": {"국회의원": 16, "외교부": 4}}, {"id": 283, "name": "행복한식공간", "address": "서울 종로구 삼청로 124-2", "lat": 37.5863168696831, "lng": 126.981975363578, "visitCount": 19, "totalAmount": 3467010, "avgAmount": 182474, "tier": "A", "institutionAmounts": {"국회의원": 1033000, "통일부": 2434010}, "institutionCounts": {"국회의원": 4, "통일부": 15}}, {"id": 284, "name": "류경회관 광화문점", "address": "서울 종로구 삼봉로 81", "lat": 37.57247397802224, "lng": 126.981842861375, "visitCount": 19, "totalAmount": 2930000, "avgAmount": 154211, "tier": "A", "institutionAmounts": {"국회의원": 1735000, "종로구의회": 1015000, "통일부": 180000}, "institutionCounts": {"국회의원": 9, "종로구의회": 9, "통일부": 1}}, {"id": 285, "name": "자금성", "address": "서울 성동구 왕십리로14길 26-2", "lat": 37.5483592220332, "lng": 127.046306151589, "visitCount": 19, "totalAmount": 2026000, "avgAmount": 106632, "tier": "A", "institutionAmounts": {"국회의원": 2026000}, "institutionCounts": {"국회의원": 19}}, {"id": 286, "name": "맛을아는집", "address": "서울 마포구 도화4길 23", "lat": 37.54084478666646, "lng": 126.95120351049832, "visitCount": 19, "totalAmount": 5238500, "avgAmount": 275711, "tier": "A", "institutionAmounts": {"국회의원": 5238500}, "institutionCounts": {"국회의원": 19}}, {"id": 287, "name": "장터국수 원남점", "address": "서울 종로구 창경궁로 135", "lat": 37.57440347162825, "lng": 126.99726051064027, "visitCount": 19, "totalAmount": 538000, "avgAmount": 28316, "tier": "A", "institutionAmounts": {"국회의원": 538000}, "institutionCounts": {"국회의원": 19}}, {"id": 288, "name": "모이세해장국", "address": "서울 마포구 토정로 286", "lat": 37.5414375410379, "lng": 126.941097504218, "visitCount": 19, "totalAmount": 1081000, "avgAmount": 56895, "tier": "A", "institutionAmounts": {"국회의원": 790000, "통일부": 291000}, "institutionCounts": {"국회의원": 18, "통일부": 1}}, {"id": 289, "name": "사리원불고기 안녕인사동점", "address": "서울 종로구 인사동길 49", "lat": 37.5745537581557, "lng": 126.983793963489, "visitCount": 19, "totalAmount": 3128000, "avgAmount": 164632, "tier": "A", "institutionAmounts": {"국회의원": 3128000}, "institutionCounts": {"국회의원": 19}}, {"id": 290, "name": "신의주찹쌀순대 광화문점", "address": "서울 종로구 새문안로3길 23", "lat": 37.57263435347583, "lng": 126.97251293123064, "visitCount": 19, "totalAmount": 939000, "avgAmount": 49421, "tier": "A", "institutionAmounts": {"국회의원": 751000, "외교부": 135000, "종로구의회": 53000}, "institutionCounts": {"국회의원": 16, "외교부": 2, "종로구의회": 1}}, {"id": 291, "name": "양자강", "address": "서울 용산구 백범로 322", "lat": 37.538246595976, "lng": 126.964675395593, "visitCount": 19, "totalAmount": 1150500, "avgAmount": 60553, "tier": "A", "institutionAmounts": {"국회의원": 1150500}, "institutionCounts": {"국회의원": 19}}, {"id": 292, "name": "밀가랑 광화문점", "address": "서울 종로구 새문안로5길 19", "lat": 37.5720292860121, "lng": 126.974293765113, "visitCount": 19, "totalAmount": 1371000, "avgAmount": 72158, "tier": "A", "institutionAmounts": {"국회의원": 1371000}, "institutionCounts": {"국회의원": 19}}, {"id": 293, "name": "노바이탈리아노", "address": "서울 동대문구 회기로21길 44", "lat": 37.59322237793839, "lng": 127.05296924441446, "visitCount": 19, "totalAmount": 4280800, "avgAmount": 225305, "tier": "A", "institutionAmounts": {"국회의원": 4280800}, "institutionCounts": {"국회의원": 19}}, {"id": 294, "name": "켄싱턴호텔 여의도 브로드웨이", "address": "서울 영등포구 국회대로76길 16", "lat": 37.53022897487861, "lng": 126.92220821164604, "visitCount": 19, "totalAmount": 3414000, "avgAmount": 179684, "tier": "A", "institutionAmounts": {"국회의원": 3414000}, "institutionCounts": {"국회의원": 19}}, {"id": 295, "name": "을밀대 본점", "address": "서울 마포구 숭문길 24", "lat": 37.5474871749408, "lng": 126.945528667601, "visitCount": 19, "totalAmount": 1893000, "avgAmount": 99632, "tier": "A", "institutionAmounts": {"국회의원": 1893000}, "institutionCounts": {"국회의원": 19}}, {"id": 296, "name": "순천집", "address": "서울 동작구 노량진로 80", "lat": 37.51297328245918, "lng": 126.93461157909115, "visitCount": 19, "totalAmount": 3560000, "avgAmount": 187368, "tier": "A", "institutionAmounts": {"국회의원": 3560000}, "institutionCounts": {"국회의원": 19}}, {"id": 297, "name": "민소한우 중앙여의도점", "address": "서울 영등포구 국제금융로2길 37", "lat": 37.5228671738776, "lng": 126.924030366469, "visitCount": 19, "totalAmount": 2081100, "avgAmount": 109532, "tier": "A", "institutionAmounts": {"국회의원": 2081100}, "institutionCounts": {"국회의원": 19}}, {"id": 298, "name": "갤러리대아", "address": "서울 종로구 인사동길 31-8", "lat": 37.5732961679249, "lng": 126.985311120865, "visitCount": 19, "totalAmount": 1169000, "avgAmount": 61526, "tier": "A", "institutionAmounts": {"국회의원": 1169000}, "institutionCounts": {"국회의원": 19}}, {"id": 299, "name": "무지개호프", "address": "서울 종로구 창신길 12", "lat": 37.572114494325, "lng": 127.010667833692, "visitCount": 19, "totalAmount": 955000, "avgAmount": 50263, "tier": "A", "institutionAmounts": {"국회의원": 955000}, "institutionCounts": {"국회의원": 19}}, {"id": 300, "name": "진주집", "address": "서울 중구 남대문시장길 22-2", "lat": 37.56000877369295, "lng": 126.97709344775303, "visitCount": 19, "totalAmount": 1328000, "avgAmount": 69895, "tier": "A", "institutionAmounts": {"국회의원": 1328000}, "institutionCounts": {"국회의원": 19}}, {"id": 301, "name": "권서방네순대국 종각점", "address": "서울 종로구 종로5길 32-28", "lat": 37.57198733068202, "lng": 126.98114114955804, "visitCount": 19, "totalAmount": 673000, "avgAmount": 35421, "tier": "A", "institutionAmounts": {"국회의원": 673000}, "institutionCounts": {"국회의원": 19}}, {"id": 302, "name": "광화문한옥집", "address": "서울 종로구 새문안로5가길 7", "lat": 37.5727716496318, "lng": 126.974036546935, "visitCount": 19, "totalAmount": 2059000, "avgAmount": 108368, "tier": "A", "institutionAmounts": {"국회의원": 262000, "외교부": 542000, "통일부": 1255000}, "institutionCounts": {"국회의원": 2, "외교부": 4, "통일부": 13}}, {"id": 303, "name": "KFC 여의도점", "address": "서울 영등포구 국회대로70길 15-1", "lat": 37.5295033275011, "lng": 126.920344514937, "visitCount": 19, "totalAmount": 275500, "avgAmount": 14500, "tier": "A", "institutionAmounts": {"국회의원": 275500}, "institutionCounts": {"국회의원": 19}}, {"id": 304, "name": "원나루여행", "address": "서울 종로구 종로3길 38", "lat": 37.5720843641391, "lng": 126.979497482469, "visitCount": 18, "totalAmount": 3450000, "avgAmount": 191667, "tier": "A", "institutionAmounts": {"국회의원": 3450000}, "institutionCounts": {"국회의원": 18}}, {"id": 305, "name": "창고43 샛강점", "address": "서울 영등포구 여의대방로 376", "lat": 37.5181900480905, "lng": 126.9313560433767, "visitCount": 18, "totalAmount": 2705000, "avgAmount": 150278, "tier": "A", "institutionAmounts": {"국회의원": 2705000}, "institutionCounts": {"국회의원": 18}}, {"id": 306, "name": "크을농", "address": "서울 강북구 4.19로 91", "lat": 37.64458685857996, "lng": 127.00516686589268, "visitCount": 18, "totalAmount": 2079000, "avgAmount": 115500, "tier": "A", "institutionAmounts": {"통일부": 2079000}, "institutionCounts": {"통일부": 18}}, {"id": 307, "name": "대송참숯 광화문점", "address": "서울 종로구 종로5길 7", "lat": 37.5707078183169, "lng": 126.980530211384, "visitCount": 18, "totalAmount": 2630000, "avgAmount": 146111, "tier": "A", "institutionAmounts": {"종로구의회": 553000, "통일부": 2077000}, "institutionCounts": {"종로구의회": 3, "통일부": 15}}, {"id": 308, "name": "소호정 여의도국회의사당점", "address": "서울 영등포구 국회대로70길 15-1", "lat": 37.52969439761648, "lng": 126.92043029390123, "visitCount": 18, "totalAmount": 2214000, "avgAmount": 123000, "tier": "A", "institutionAmounts": {"국회의원": 2214000}, "institutionCounts": {"국회의원": 18}}, {"id": 309, "name": "돈해진미", "address": "서울 영등포구 국회대로 780", "lat": 37.5297766733372, "lng": 126.919520604854, "visitCount": 18, "totalAmount": 1479500, "avgAmount": 82194, "tier": "B", "institutionAmounts": {"국회의원": 1479500}, "institutionCounts": {"국회의원": 18}}, {"id": 310, "name": "편안한집", "address": "서울 종로구 북촌로 133", "lat": 37.5872937461736, "lng": 126.983338315565, "visitCount": 18, "totalAmount": 2791000, "avgAmount": 155056, "tier": "B", "institutionAmounts": {"통일부": 2791000}, "institutionCounts": {"통일부": 18}}, {"id": 311, "name": "한촌설렁탕 서대문역점", "address": "서울 중구 서소문로9길 28", "lat": 37.56370668722274, "lng": 126.97004196903148, "visitCount": 18, "totalAmount": 1644000, "avgAmount": 91333, "tier": "B", "institutionAmounts": {"국회의원": 1644000}, "institutionCounts": {"국회의원": 18}}, {"id": 312, "name": "원조기사님분식", "address": "서울 마포구 대흥로 98", "lat": 37.5484697064135, "lng": 126.942658144155, "visitCount": 18, "totalAmount": 532000, "avgAmount": 29556, "tier": "B", "institutionAmounts": {"국회의원": 532000}, "institutionCounts": {"국회의원": 18}}, {"id": 313, "name": "강구미주구리 본관", "address": "서울 종로구 자하문로2길 5", "lat": 37.5765844334368, "lng": 126.973029959769, "visitCount": 18, "totalAmount": 2947000, "avgAmount": 163722, "tier": "B", "institutionAmounts": {"국회의원": 292000, "외교부": 1009000, "종로구의회": 669000, "통일부": 977000}, "institutionCounts": {"국회의원": 1, "외교부": 6, "종로구의회": 5, "통일부": 6}}, {"id": 314, "name": "우동카덴 연희점", "address": "서울 서대문구 연희로 173", "lat": 37.57240343339889, "lng": 126.93502377053204, "visitCount": 18, "totalAmount": 1387500, "avgAmount": 77083, "tier": "B", "institutionAmounts": {"국회의원": 1387500}, "institutionCounts": {"국회의원": 18}}, {"id": 315, "name": "현래장", "address": "서울 마포구 마포대로 20", "lat": 37.53842557160494, "lng": 126.9449853625797, "visitCount": 18, "totalAmount": 3983000, "avgAmount": 221278, "tier": "B", "institutionAmounts": {"국회의원": 3983000}, "institutionCounts": {"국회의원": 18}}, {"id": 316, "name": "체부동잔치집 통인시장점", "address": "서울 종로구 자하문로15길 11", "lat": 37.5806779060521, "lng": 126.970343105621, "visitCount": 18, "totalAmount": 601000, "avgAmount": 33389, "tier": "B", "institutionAmounts": {"국회의원": 601000}, "institutionCounts": {"국회의원": 18}}, {"id": 317, "name": "도원스타일 서울역점", "address": "서울 중구 한강대로 405", "lat": 37.554896159299545, "lng": 126.97133905825407, "visitCount": 18, "totalAmount": 4106800, "avgAmount": 228156, "tier": "B", "institutionAmounts": {"국회의원": 3794800, "외교부": 312000}, "institutionCounts": {"국회의원": 17, "외교부": 1}}, {"id": 318, "name": "스토리웨이", "address": "서울 중구 봉래동2가 125", "lat": 37.5552045982039, "lng": 126.972592896838, "visitCount": 18, "totalAmount": 115720, "avgAmount": 6429, "tier": "B", "institutionAmounts": {"국회의원": 115720}, "institutionCounts": {"국회의원": 18}}, {"id": 319, "name": "오한수 우육면가 광화문본점", "address": "서울 종로구 종로1길 42", "lat": 37.57389707470139, "lng": 126.97897852370065, "visitCount": 18, "totalAmount": 1131700, "avgAmount": 62872, "tier": "B", "institutionAmounts": {"국회의원": 1131700}, "institutionCounts": {"국회의원": 18}}, {"id": 320, "name": "남도진미", "address": "서울 서초구 서초대로46길 25", "lat": 37.4914100327203, "lng": 127.010403053557, "visitCount": 18, "totalAmount": 1800000, "avgAmount": 100000, "tier": "B", "institutionAmounts": {"국회의원": 1800000}, "institutionCounts": {"국회의원": 18}}, {"id": 321, "name": "본도시락 광화문점", "address": "서울 종로구 사직로8길 42", "lat": 37.57371033286656, "lng": 126.97334795905246, "visitCount": 18, "totalAmount": 2151900, "avgAmount": 119550, "tier": "B", "institutionAmounts": {"국회의원": 300700, "외교부": 590200, "종로구의회": 477000, "통일부": 784000}, "institutionCounts": {"국회의원": 1, "외교부": 2, "종로구의회": 9, "통일부": 6}}, {"id": 322, "name": "그랜드하얏트 그랜드볼룸 정문", "address": "서울 용산구 한남동 747-23", "lat": 37.5404475740622, "lng": 126.996831780868, "visitCount": 18, "totalAmount": 2857500, "avgAmount": 158750, "tier": "B", "institutionAmounts": {"국회의원": 2814500, "외교부": 43000}, "institutionCounts": {"국회의원": 17, "외교부": 1}}, {"id": 323, "name": "청춘구락부 마포점", "address": "서울 마포구 토정로 308", "lat": 37.54003737661019, "lng": 126.9429101379547, "visitCount": 18, "totalAmount": 6482400, "avgAmount": 360133, "tier": "B", "institutionAmounts": {"국회의원": 6482400}, "institutionCounts": {"국회의원": 18}}, {"id": 324, "name": "그리디몬버거", "address": "서울 영등포구 의사당대로 38", "lat": 37.52531746391855, "lng": 126.9190344207338, "visitCount": 17, "totalAmount": 1184700, "avgAmount": 69688, "tier": "B", "institutionAmounts": {"국회의원": 1184700}, "institutionCounts": {"국회의원": 17}}, {"id": 325, "name": "스타벅스 적선점", "address": "서울 종로구 새문안로5길 55", "lat": 37.57527012561527, "lng": 126.9741160538924, "visitCount": 17, "totalAmount": 440150, "avgAmount": 25891, "tier": "B", "institutionAmounts": {"국회의원": 254050, "외교부": 110600, "종로구의회": 75500}, "institutionCounts": {"국회의원": 13, "외교부": 1, "종로구의회": 3}}, {"id": 326, "name": "경복궁 당산점 주차장입구", "address": "서울 영등포구 당산동4가 93-5", "lat": 37.5292885352504, "lng": 126.89459323096, "visitCount": 17, "totalAmount": 2121900, "avgAmount": 124818, "tier": "B", "institutionAmounts": {"국회의원": 2121900}, "institutionCounts": {"국회의원": 17}}, {"id": 327, "name": "소야원", "address": "서울 종로구 사직로10길 9-7", "lat": 37.5755459399649, "lng": 126.970730033793, "visitCount": 17, "totalAmount": 1533000, "avgAmount": 90176, "tier": "B", "institutionAmounts": {"통일부": 1533000}, "institutionCounts": {"통일부": 17}}, {"id": 328, "name": "강가 무교점", "address": "서울 중구 세종대로 136", "lat": 37.56843234045976, "lng": 126.97789340677274, "visitCount": 17, "totalAmount": 2771700, "avgAmount": 163041, "tier": "B", "institutionAmounts": {"국회의원": 2771700}, "institutionCounts": {"국회의원": 17}}, {"id": 329, "name": "밀밭정원", "address": "서울 마포구 마포대로16길 13", "lat": 37.5507643910195, "lng": 126.957150721628, "visitCount": 17, "totalAmount": 3174000, "avgAmount": 186706, "tier": "B", "institutionAmounts": {"국회의원": 3174000}, "institutionCounts": {"국회의원": 17}}, {"id": 330, "name": "글래드 마포", "address": "서울 마포구 마포대로 92", "lat": 37.54293061848711, "lng": 126.95124628130664, "visitCount": 17, "totalAmount": 4153180, "avgAmount": 244305, "tier": "B", "institutionAmounts": {"국회의원": 4153180}, "institutionCounts": {"국회의원": 17}}, {"id": 331, "name": "제주식당 한남점", "address": "서울 용산구 대사관로 48", "lat": 37.53336119447349, "lng": 127.00354806966112, "visitCount": 17, "totalAmount": 3884000, "avgAmount": 228471, "tier": "B", "institutionAmounts": {"국회의원": 3884000}, "institutionCounts": {"국회의원": 17}}, {"id": 332, "name": "미시락", "address": "서울 양천구 목동중앙북로16길 10", "lat": 37.5457238679355, "lng": 126.873669701127, "visitCount": 17, "totalAmount": 574000, "avgAmount": 33765, "tier": "B", "institutionAmounts": {"국회의원": 574000}, "institutionCounts": {"국회의원": 17}}, {"id": 333, "name": "산유화한정식", "address": "서울 종로구 인사동14길 22-2", "lat": 37.5747773931593, "lng": 126.985229324053, "visitCount": 17, "totalAmount": 3626500, "avgAmount": 213324, "tier": "B", "institutionAmounts": {"국회의원": 3626500}, "institutionCounts": {"국회의원": 17}}, {"id": 334, "name": "노독일처", "address": "서울 마포구 토정로37길 17", "lat": 37.5411546181602, "lng": 126.94480910377, "visitCount": 17, "totalAmount": 6321900, "avgAmount": 371876, "tier": "B", "institutionAmounts": {"국회의원": 6321900}, "institutionCounts": {"국회의원": 17}}, {"id": 335, "name": "황성빌딩", "address": "서울 종로구 지봉로8길 44-6", "lat": 37.5765971653663, "lng": 127.016555151857, "visitCount": 17, "totalAmount": 3132000, "avgAmount": 184235, "tier": "B", "institutionAmounts": {"통일부": 3132000}, "institutionCounts": {"통일부": 17}}, {"id": 336, "name": "커피빈 하나은행경복궁역점", "address": "서울 종로구 사직로 130", "lat": 37.5755285563333, "lng": 126.973419761443, "visitCount": 17, "totalAmount": 1507900, "avgAmount": 88700, "tier": "B", "institutionAmounts": {"국회의원": 65800, "외교부": 1215100, "종로구의회": 192700, "종로구청": 11500, "통일부": 22800}, "institutionCounts": {"국회의원": 4, "외교부": 7, "종로구의회": 4, "종로구청": 1, "통일부": 1}}, {"id": 337, "name": "몽중헌 청담점", "address": "서울 강남구 도산대로 445", "lat": 37.52429227164699, "lng": 127.04481610576194, "visitCount": 17, "totalAmount": 5313200, "avgAmount": 312541, "tier": "B", "institutionAmounts": {"국회의원": 5313200}, "institutionCounts": {"국회의원": 17}}, {"id": 338, "name": "투썸플레이스 국회의사당역점", "address": "서울 영등포구 의사당대로 21", "lat": 37.52777003567452, "lng": 126.91936324529638, "visitCount": 17, "totalAmount": 425300, "avgAmount": 25018, "tier": "B", "institutionAmounts": {"국회의원": 425300}, "institutionCounts": {"국회의원": 17}}, {"id": 339, "name": "웨스틴조선서울 나인스게이트", "address": "서울 중구 소공로 106", "lat": 37.56448187751539, "lng": 126.98016963334432, "visitCount": 17, "totalAmount": 3095000, "avgAmount": 182059, "tier": "B", "institutionAmounts": {"국회의원": 3095000}, "institutionCounts": {"국회의원": 17}}, {"id": 340, "name": "삼형제김밥 종로구청점", "address": "서울 종로구 삼봉로 60", "lat": 37.5722872446326, "lng": 126.980419997355, "visitCount": 17, "totalAmount": 959300, "avgAmount": 56429, "tier": "B", "institutionAmounts": {"국회의원": 703000, "종로구의회": 226000, "종로구청": 30300}, "institutionCounts": {"국회의원": 13, "종로구의회": 3, "종로구청": 1}}, {"id": 341, "name": "제스트 콘래드서울점", "address": "서울 영등포구 국제금융로 10", "lat": 37.5255682928589, "lng": 126.926747228948, "visitCount": 16, "totalAmount": 3411000, "avgAmount": 213188, "tier": "B", "institutionAmounts": {"국회의원": 3411000}, "institutionCounts": {"국회의원": 16}}, {"id": 342, "name": "크리스탈제이드 소공점", "address": "서울 중구 남대문로7길 16", "lat": 37.5643108693332, "lng": 126.981278908966, "visitCount": 16, "totalAmount": 4188700, "avgAmount": 261794, "tier": "B", "institutionAmounts": {"국회의원": 4188700}, "institutionCounts": {"국회의원": 16}}, {"id": 343, "name": "루미안에프앤비", "address": "서울 강남구 도산대로81길 51", "lat": 37.5270814126612, "lng": 127.045759019914, "visitCount": 16, "totalAmount": 3792000, "avgAmount": 237000, "tier": "B", "institutionAmounts": {"국회의원": 3792000}, "institutionCounts": {"국회의원": 16}}, {"id": 344, "name": "경복궁 주차장", "address": "서울 종로구 사직로 161", "lat": 37.57737760533285, "lng": 126.97891528167602, "visitCount": 16, "totalAmount": 1228700, "avgAmount": 76794, "tier": "B", "institutionAmounts": {"국회의원": 1228700}, "institutionCounts": {"국회의원": 16}}, {"id": 345, "name": "옛날명동칼국수", "address": "서울 종로구 새문안로5가길 28", "lat": 37.5744618184064, "lng": 126.97359673591, "visitCount": 16, "totalAmount": 1182500, "avgAmount": 73906, "tier": "B", "institutionAmounts": {"국회의원": 168500, "종로구의회": 313000, "통일부": 701000}, "institutionCounts": {"국회의원": 5, "종로구의회": 7, "통일부": 4}}, {"id": 346, "name": "초원식당", "address": "서울 종로구 종로17길 30", "lat": 37.5717216040712, "lng": 126.988725481176, "visitCount": 16, "totalAmount": 1663000, "avgAmount": 103938, "tier": "B", "institutionAmounts": {"국회의원": 1663000}, "institutionCounts": {"국회의원": 16}}, {"id": 347, "name": "자린고비", "address": "서울 영등포구 국제금융로 20", "lat": 37.5248478160282, "lng": 126.92727284313, "visitCount": 16, "totalAmount": 818000, "avgAmount": 51125, "tier": "B", "institutionAmounts": {"국회의원": 818000}, "institutionCounts": {"국회의원": 16}}, {"id": 348, "name": "좋은벗풍경소리", "address": "서울 종로구 우정국로 67", "lat": 37.5750581409892, "lng": 126.982571261468, "visitCount": 16, "totalAmount": 640000, "avgAmount": 40000, "tier": "B", "institutionAmounts": {"국회의원": 640000}, "institutionCounts": {"국회의원": 16}}, {"id": 349, "name": "남도사계절맛집", "address": "서울 마포구 토정로32길 3", "lat": 37.5407891090464, "lng": 126.941677348389, "visitCount": 16, "totalAmount": 4605000, "avgAmount": 287812, "tier": "B", "institutionAmounts": {"국회의원": 4605000}, "institutionCounts": {"국회의원": 16}}, {"id": 350, "name": "고반식당 서여의도점", "address": "서울 영등포구 의사당대로 26", "lat": 37.526702105877, "lng": 126.918093946175, "visitCount": 16, "totalAmount": 2027000, "avgAmount": 126688, "tier": "B", "institutionAmounts": {"국회의원": 2027000}, "institutionCounts": {"국회의원": 16}}, {"id": 351, "name": "포시즌스호텔 서울 가든테라스", "address": "서울 종로구 새문안로 97", "lat": 37.5706888390196, "lng": 126.975391099079, "visitCount": 16, "totalAmount": 1248200, "avgAmount": 78012, "tier": "B", "institutionAmounts": {"국회의원": 1248200}, "institutionCounts": {"국회의원": 16}}, {"id": 352, "name": "대복집", "address": "서울 종로구 사직로 137-9", "lat": 37.57624135101527, "lng": 126.9739040247066, "visitCount": 16, "totalAmount": 3085000, "avgAmount": 192812, "tier": "B", "institutionAmounts": {"국회의원": 1349000, "외교부": 968000, "통일부": 768000}, "institutionCounts": {"국회의원": 6, "외교부": 4, "통일부": 6}}, {"id": 353, "name": "투썸플레이스 서여의도점", "address": "서울 영등포구 국회대로70길 15-1", "lat": 37.52963296543624, "lng": 126.92018712037832, "visitCount": 16, "totalAmount": 343000, "avgAmount": 21438, "tier": "B", "institutionAmounts": {"국회의원": 343000}, "institutionCounts": {"국회의원": 16}}, {"id": 354, "name": "꾸지뽕민물매운탕&장단콩마을", "address": "서울 성북구 보국문로 197", "lat": 37.61762496138655, "lng": 126.99926489369814, "visitCount": 16, "totalAmount": 2012000, "avgAmount": 125750, "tier": "B", "institutionAmounts": {"국회의원": 2012000}, "institutionCounts": {"국회의원": 16}}, {"id": 355, "name": "버드나무식당", "address": "서울 은평구 통일로 753", "lat": 37.6121870821282, "lng": 126.92787649095, "visitCount": 16, "totalAmount": 3438000, "avgAmount": 214875, "tier": "B", "institutionAmounts": {"국회의원": 3288000, "외교부": 150000}, "institutionCounts": {"국회의원": 15, "외교부": 1}}, {"id": 356, "name": "깐부치킨 북창동점", "address": "서울 중구 세종대로 78", "lat": 37.5630955818055, "lng": 126.977059679049, "visitCount": 16, "totalAmount": 1431000, "avgAmount": 89438, "tier": "B", "institutionAmounts": {"국회의원": 1431000}, "institutionCounts": {"국회의원": 16}}, {"id": 357, "name": "영의정", "address": "서울 영등포구 국제금융로 72", "lat": 37.521271291986, "lng": 126.931036479906, "visitCount": 16, "totalAmount": 1645000, "avgAmount": 102812, "tier": "B", "institutionAmounts": {"국회의원": 1645000}, "institutionCounts": {"국회의원": 16}}, {"id": 358, "name": "스타벅스 국회대로점", "address": "서울 영등포구 국회대로 786", "lat": 37.5302596281825, "lng": 126.919547238416, "visitCount": 16, "totalAmount": 333900, "avgAmount": 20869, "tier": "B", "institutionAmounts": {"국회의원": 333900}, "institutionCounts": {"국회의원": 16}}, {"id": 359, "name": "광주집", "address": "서울 종로구 돈화문로11나길 3", "lat": 37.5730012014464, "lng": 126.990857974705, "visitCount": 16, "totalAmount": 1718000, "avgAmount": 107375, "tier": "B", "institutionAmounts": {"국회의원": 1718000}, "institutionCounts": {"국회의원": 16}}, {"id": 360, "name": "설연향", "address": "서울 영등포구 국회대로76길 33", "lat": 37.5295274745574, "lng": 126.924177474549, "visitCount": 16, "totalAmount": 1787500, "avgAmount": 111719, "tier": "B", "institutionAmounts": {"국회의원": 1787500}, "institutionCounts": {"국회의원": 16}}, {"id": 361, "name": "홍콩반점0410 종각역점", "address": "서울 종로구 종로10길 21", "lat": 37.5689965198931, "lng": 126.984537719296, "visitCount": 16, "totalAmount": 711500, "avgAmount": 44469, "tier": "B", "institutionAmounts": {"국회의원": 711500},